     3.03           OBSERVATION DATA    M (MIXED)           RINEX VERSION / TYPE
cnvtToRINEX 3.14.0  convertToRINEX OPR  20260102 051032 UTC PGM / RUN BY / DATE
gfzrnx-1.10-7329    FILE CONVERSION     20260102 051035 UTC COMMENT
----------------------------------------------------------- COMMENT
NVSK                                                        MARKER NAME
12319M001                                                   MARKER NUMBER
GEODETIC                                                    MARKER TYPE
ArdyukovDG          IPGG SB RAS                             OBSERVER / AGENCY
5937R24658          TRIMBLE R9S         5.44                REC # / TYPE / VERS
1441116772          TRM57971.00     NONE                    ANT # / TYPE
   433604.5256  3655561.9464  5191288.5836                  APPROX POSITION XYZ
        6.1661        0.0000        0.0000                  ANTENNA: DELTA H/E/N
     0                                                      RCV CLOCK OFFS APPL
 24 R01  1 R02 -4 R03  5 R04  6 R05  1 R06 -4 R07  5 R08  6 GLONASS SLOT / FRQ #
    R09 -2 R10 -7 R11  0 R12 -1 R13 -2 R14 -7 R15  0 R16 -1 GLONASS SLOT / FRQ #
    R17  4 R18 -3 R19  3 R20  2 R21  4 R22 -3 R23  3 R24  2 GLONASS SLOT / FRQ #
R L2C -0.25000                                              SYS / PHASE SHIFT
    18                  GPS                                 LEAP SECONDS
DBHZ                                                        SIGNAL STRENGTH UNIT
 C1C    0.000 C2C    0.000                                  GLONASS COD/PHS/BIS
G    4 C1C C2W L1C L2W                                      SYS / # / OBS TYPES
R    4 C1C C2C L1C L2C                                      SYS / # / OBS TYPES
    56                                                      # OF SATELLITES
   G01   978   942   972   942                              PRN / # OF OBS
   G02   987   949   979   949                              PRN / # OF OBS
   G03   953   943   946   943                              PRN / # OF OBS
   G04   704   686   702   686                              PRN / # OF OBS
   G05   724   697   714   697                              PRN / # OF OBS
   G06   716   699   710   699                              PRN / # OF OBS
   G07   719   719   719   719                              PRN / # OF OBS
   G08   860   852   857   852                              PRN / # OF OBS
   G09   861   843   850   843                              PRN / # OF OBS
   G10   755   755   755   755                              PRN / # OF OBS
   G11   688   688   688   688                              PRN / # OF OBS
   G12   965   942   957   942                              PRN / # OF OBS
   G13   949   903   948   903                              PRN / # OF OBS
   G14   756   750   755   750                              PRN / # OF OBS
   G15   856   825   847   825                              PRN / # OF OBS
   G16   855   738   836   738                              PRN / # OF OBS
   G17   701   700   701   700                              PRN / # OF OBS
   G18   728   718   725   718                              PRN / # OF OBS
   G19   662   662   662   662                              PRN / # OF OBS
   G20   766   674   759   674                              PRN / # OF OBS
   G21   851   801   846   801                              PRN / # OF OBS
   G22   745   745   745   745                              PRN / # OF OBS
   G23   714   714   714   714                              PRN / # OF OBS
   G24   922   917   919   917                              PRN / # OF OBS
   G25   942   927   936   927                              PRN / # OF OBS
   G26   832   809   818   809                              PRN / # OF OBS
   G27   942   935   940   935                              PRN / # OF OBS
   G28   753   699   745   699                              PRN / # OF OBS
   G29   877   864   870   864                              PRN / # OF OBS
   G30   772   752   760   752                              PRN / # OF OBS
   G31   709   703   709   703                              PRN / # OF OBS
   G32   772   768   769   768                              PRN / # OF OBS
   R01   917         917                                    PRN / # OF OBS
   R02  1138  1129  1137  1125                              PRN / # OF OBS
   R03  1157  1154  1157  1153                              PRN / # OF OBS
   R04  1093  1091  1093  1089                              PRN / # OF OBS
   R05   916   913   915   912                              PRN / # OF OBS
   R06   926   924   926   924                              PRN / # OF OBS
   R07   912   909   912   907                              PRN / # OF OBS
   R08   835   834   834   832                              PRN / # OF OBS
   R09   838   831   838   830                              PRN / # OF OBS
   R10   863         863                                    PRN / # OF OBS
   R11   124   123   124   123                              PRN / # OF OBS
   R12  1155  1150  1155  1150                              PRN / # OF OBS
   R13  1114        1114                                    PRN / # OF OBS
   R14  1012  1011  1012  1009                              PRN / # OF OBS
   R15   930   911   928   908                              PRN / # OF OBS
   R16   907   901   907   896                              PRN / # OF OBS
   R17  1032  1030  1032  1030                              PRN / # OF OBS
   R18  1112  1109  1112  1109                              PRN / # OF OBS
   R19  1082  1079  1082  1077                              PRN / # OF OBS
   R20   941   932   941   928                              PRN / # OF OBS
   R21   867   862   866   861                              PRN / # OF OBS
   R22   912   901   912   900                              PRN / # OF OBS
   R23   956         956                                    PRN / # OF OBS
   R24   996   993   996   992                              PRN / # OF OBS
    30.000                                                  INTERVAL
  2026     1     1     0     0    0.0000000     GPS         TIME OF FIRST OBS
  2026     1     1    23    59   30.0000000     GPS         TIME OF LAST OBS
                                                            END OF HEADER
> 2026 01 01 00 00 00.0000000  0 17
G01  22132092.477 7  22132095.566 5 116304780.090 7  90627221.477 5
G02  23462466.578 7  23462467.840 4 123296064.386 7  96074866.417 4
G03  22698823.375 7  22698828.230 6 119283080.059 7  92947902.727 6
G10  23593487.984 7  23593493.855 6 123984629.095 7  96611428.515 6
G12  23674410.523 6  23674413.156 6 124409911.631 6  96942782.019 6
G25  22225559.305 7  22225564.141 6 116796105.638 7  91009989.189 6
G28  20751835.383 7  20751838.281 6 109051659.149 7  84975337.061 6
G31  21933809.758 7  21933812.180 7 115262971.673 7  89815315.351 7
G32  21258522.602 8  21258526.797 8 111714308.783 8  87050149.500 8
R01  22539354.648 7                 120485811.693 7
R02  19537005.367 8  19537006.172 8 104253270.282 8  81085863.042 8
R03  20797158.383 8  20797159.543 8 111328843.504 8  86589092.158 8
R11  21519512.578 8  21519511.734 7 114993764.003 8  89439614.899 7
R12  20345110.750 8  20345113.754 8 108679968.837 8  84528874.919 8
R13  22795510.719 6                 121726735.077 6
R17  23883724.594 6  23883727.414 6 127806616.199 6  99405138.879 6
R18  21730156.656 7  21730157.188 7 115997094.812 7  90219923.573 7
> 2026 01 01 00 00 30.0000000  0 18
G01  22132645.133 7  22132648.148 5 116307683.633 7  90629483.980 5
G02  23473660.586 6  23473661.828 4 123354887.769 6  96120702.790 4
G03  22677364.953 7  22677370.141 6 119170315.644 7  92860034.366 6
G10  23610618.742 7  23610623.262 6 124074644.104 7  96681570.040 6
G12  23678021.445 7  23678023.988 6 124428884.690 7  96957566.217 6
G25  22217535.898 7  22217540.660 6 116753941.354 7  90977133.919 6
G28  20742766.125 7  20742768.328 6 109003995.479 7  84938196.547 6
G31  21912466.203 7  21912468.801 7 115150811.296 7  89727917.670 7
G32  21265555.359 8  21265559.563 8 111751266.077 8  87078947.394 8
R01  22556202.438 7                 120575864.967 7
R02  19539774.344 8  19539775.809 8 104268050.245 8  81097358.567 8
R03  20778765.805 8  20778766.828 8 111230387.185 8  86512515.044 8
R11  21530733.688 8  21530733.371 7 115053728.791 8  89486254.188 7
R12  20331081.227 8  20331083.320 8 108605024.459 8  84470584.847 8
R13  22767441.508 6                 121576852.838 6
R17  23905527.867 6  23905529.117 5 127923288.691 6  99495884.129 5
R18  21741778.336 7  21741780.777 7 116059142.334 7  90268182.754 7
R19  22152780.969 5  22152776.820 4 118502377.77415  92168550.53614
> 2026 01 01 00 01 00.0000000  0 17
G01  22133312.688 7  22133315.000 5 116311191.631 7  90632217.475 5
G02  23484915.828 7  23484916.258 5 123414032.774 7  96166789.789 5
G03  22655957.211 6  22655962.273 6 119057819.331 6  92772374.913 6
G10  23627789.898 7  23627794.469 6 124164879.833 7  96751883.569 6
G12  23681748.492 7  23681750.516 5 124448471.788 7  96972828.918 5
G25  22209634.266 7  22209639.816 6 116712419.864 7  90944779.523 6
G28  20733800.039 7  20733802.633 6 108956880.260 7  84901483.398 6
G31  21891193.531 7  21891196.047 7 115039020.601 7  89640808.071 7
G32  21272647.727 8  21272651.891 8 111788538.234 8  87107990.627 8
R01  22573083.352 7                 120666105.764 7
R02  19542633.453 8  19542635.012 8 104283305.095 8  81109223.440 8
R03  20760425.680 8  20760426.906 8 111132213.459 8  86436157.699 8
R11  21542079.617 8  21542079.188 7 115114358.259 8  89533410.437 7
R12  20317193.359 8  20317195.105 8 108530833.209 8  84412880.570 8
R13  22739410.750 6                 121427177.479 6
R17  23927343.781 6  23927345.379 6 128040031.252 6  99586683.806 6
R18  21753524.148 7  21753525.168 7 116121834.923 7  90316943.593 7
> 2026 01 01 00 01 30.0000000  0 17
G01  22134095.344 7  22134097.941 5 116315303.118 7  90635421.224 5
G02  23496230.609 7  23496232.461 4 123473496.880 7  96213125.425 4
G03  22634601.453 7  22634606.184 6 118945593.625 7  92684926.330 6
G10  23645002.977 7  23645007.867 6 124255334.381 7  96822367.623 6
G12  23685592.141 7  23685595.480 6 124468671.950 7  96988569.305 6
G25  22201855.883 7  22201860.781 6 116671542.504 7  90912927.060 6
G28  20724938.609 7  20724941.371 6 108910313.918 7  84865197.944 6
G31  21869990.742 7  21869993.441 7 114927601.884 7  89553988.309 7
G32  21279800.398 8  21279804.473 8 111826124.445 8  87137278.590 8
R01  22590000.359 7                 120756533.338 7
R02  19545580.992 8  19545582.543 8 104299034.657 8  81121457.549 8
R03  20742139.758 8  20742140.703 8 111034324.905 8  86360022.159 8
R11  21553548.883 7  21553548.949 7 115175648.251 7  89581080.431 7
R12  20303445.945 8  20303447.191 8 108457397.279 8  84355763.737 8
R13  22711423.313 6                 121277713.045 6
R17  23949173.469 6  23949175.246 5 128156839.624 6  99677534.705 5
R18  21765387.883 7  21765389.949 7 116185168.961 7  90366203.360 7
> 2026 01 01 00 02 00.0000000  0 17
G01  22134992.523 7  22134995.469 5 116320019.970 7  90639096.678 5
G02  23507607.555 7  23507608.648 4 123533280.403 7  96259709.969 4
G03  22613297.875 7  22613302.637 6 118833643.617 7  92597692.574 6
G10  23662256.813 7  23662262.324 5 124346008.602 7  96893022.836 5
G12  23689553.602 7  23689555.711 6 124489486.419 7  97004788.354 6
G25  22194200.242 7  22194205.828 6 116631313.221 7  90881579.559 6
G28  20716182.242 7  20716185.324 6 108864299.612 7  84829342.649 6
G31  21848860.289 7  21848862.832 7 114816559.742 7  89467461.995 7
G32  21287012.492 8  21287017.016 8 111864026.586 8  87166812.697 8
R01  22606951.656 7                 120847149.099 7
R02  19548618.172 8  19548619.707 8 104315241.445 8  81134062.824 8
R03  20723907.984 8  20723908.387 8 110936725.808 8  86284111.769 8
R11  21565142.352 8  21565141.879 7 115237598.372 8  89629263.852 7
R12  20289840.422 8  20289842.160 8 108384721.927 8  84299238.494 8
R13  22683473.477 6                 121128466.257 6
R17  23971015.063 6  23971012.969 5 128273712.286 6  99768435.560 5
R18  21777372.320 7  21777374.902 7 116249143.199 7  90415961.103 7
> 2026 01 01 00 02 30.0000000  0 17
G01  22136005.320 7  22136007.895 5 116325338.602 7  90643241.062 5
G02  23519043.063 7  23519044.641 4 123593378.222 7  96306539.409 4
G03  22592047.375 7  22592052.039 6 118721969.163 7  92510673.545 6
G10  23679552.102 6  23679558.793 5 124436897.958 6  96963845.642 5
G12  23693630.516 7  23693632.887 6 124510910.941 7  97021482.788 6
G25  22186667.383 7  22186673.027 6 116591730.547 7  90850735.948 6
G28  20707530.961 7  20707533.508 6 108818835.102 7  84793915.764 6
G31  21827801.266 7  21827804.027 7 114705894.112 7  89381229.058 7
G32  21294284.930 8  21294289.441 8 111902241.163 8  87196590.290 8
R01  22623936.813 7                 120937948.763 7
R02  19551744.492 8  19551745.621 8 104331922.349 8  81147036.857 8
R03  20705727.930 8  20705730.070 8 110839415.592 8  86208426.065 8
R11  21576857.438 8  21576857.355 7 115300202.096 8  89677955.627 7
R12  20276378.688 8  20276379.664 8 108312806.887 8  84243304.584 8
R13  22655565.398 6                 120979438.165 6
R17  23992864.148 6  23992865.941 5 128390642.150 6  99859380.930 5
R18  21789476.477 7  21789477.535 7 116313751.311 7  90466211.796 7
> 2026 01 01 00 03 00.0000000  0 18
G01  22137131.008 7  22137134.016 5 116331257.891 7  90647853.482 5
G02  23530539.859 7  23530540.648 4 123653787.771 7  96353611.769 4
G03  22570849.305 7  22570853.801 6 118610572.549 7  92423871.003 6
G10  23696889.656 7  23696893.996 5 124528000.321 7  97034834.468 5
G12  23697823.125 7  23697826.176 6 124532944.418 7  97038651.749 6
G25  22179258.531 7  22179263.891 6 116552795.505 7  90820396.957 6
G28  20698984.047 7  20698986.508 6 108773920.600 7  84758917.450 6
G31  21806814.359 7  21806816.836 7 114595606.799 7  89295290.908 7
G32  21301615.930 8  21301620.508 8 111940767.147 8  87226610.525 8
R01  22640958.180 7                 121028930.769 7
R02  19554959.078 8  19554960.281 8 104349077.028 8  81160379.382 8
R03  20687603.672 8  20687605.711 8 110742394.778 8  86132965.468 8
R11  21588694.547 8  21588695.074 7 115363456.370 8  89727153.421 7
R12  20263058.484 8  20263059.773 8 108241654.519 8  84187963.874 8
R13  22627698.141 6                 120830632.973 6
R17  24014725.969 6  24014727.328 5 128507625.175 6  99950367.731 5
R18  21801697.547 7  21801698.637 7 116378988.782 7  90516952.060 7
R19  22102524.789 5  22102519.020 5 118233451.89115  91959445.55315
> 2026 01 01 00 03 30.0000000  0 17
G01  22138372.297 7  22138374.660 5 116337779.138 7  90652934.952 5
G02  23542094.406 7  23542095.375 4 123714508.695 7  96400926.744 4
G03  22549704.359 7  22549709.711 6 118499458.559 7  92337288.683 6
G10  23714266.352 7  23714270.859 6 124619316.166 7  97105989.665 6
G12  23702131.867 7  23702134.129 6 124555587.796 7  97056295.903 6
G25  22171973.602 7  22171978.855 6 116514511.578 7  90790565.354 6
G28  20690542.422 7  20690544.453 6 108729558.753 7  84724349.788 6
G31  21785900.219 7  21785902.781 7 114485702.572 7  89209651.271 7
G32  21309007.094 8  21309011.203 8 111979606.032 8  87256874.580 8
R01  22658012.594 7                 121120096.466 7
R02  19558263.180 8  19558264.297 8 104366707.611 8  81174092.063 8
R03  20669535.492 8  20669536.469 7 110645668.860 8  86057734.191 7
R11  21600653.078 7  21600653.266 7 115427359.249 7  89776855.627 7
R12  20249882.336 8  20249883.906 8 108171269.374 8  84133219.890 8
R13  22599874.758 6                 120682056.508 6
R17  24036596.383 6  24036598.910 5 128624659.226 6 100041394.178 5
R18  21814037.492 7  21814037.762 7 116444854.594 7  90568180.961 7
> 2026 01 01 00 04 00.0000000  0 17
G01  22139727.586 7  22139729.738 5 116344899.029 7  90658482.904 5
G02  23553707.688 7  23553708.363 4 123775535.961 7  96448480.421 4
G03  22528614.023 7  22528619.309 6 118388627.306 7  92250926.685 6
G10  23731683.047 7  23731688.270 6 124710841.227 7  97177307.881 6
G12  23706556.703 7  23706558.371 6 124578837.195 7  97074412.336 6
G25  22164812.000 7  22164817.289 6 116476877.626 7  90761240.216 6
G28  20682204.992 7  20682207.586 6 108685747.639 7  84690211.272 6
G31  21765058.914 7  21765061.461 7 114376180.941 7  89124309.750 7
G32  21316456.578 8  21316460.938 8 112018754.630 8  87287379.982 8
R01  22675100.008 7                 121211442.052 7
R02  19561655.539 8  19561656.801 8 104384811.271 8  81188172.687 8
R03  20651520.281 8  20651522.008 7 110549236.146 8  85982730.963 7
R11  21612733.469 8  21612732.063 7 115491905.157 8  89827057.998 7
R12  20236849.000 8  20236851.043 8 108101651.455 8  84079072.639 8
R13  22572094.469 6                 120533710.646 6
R17  24058474.359 6  24058475.547 5 128741737.390 6 100132454.919 5
R18  21826491.617 7  21826493.402 7 116511342.272 7  90619893.569 7
> 2026 01 01 00 04 30.0000000  0 17
G01  22141196.727 7  22141198.738 5 116352619.082 7  90664498.531 5
G02  23565378.797 7  23565379.836 4 123836869.848 7  96496273.063 4
G03  22507578.852 7  22507583.496 6 118278083.925 7  92164789.002 6
G10  23749138.938 6  23749144.613 5 124802576.215 6  97248789.633 5
G12  23711096.148 7  23711098.652 6 124602693.947 7  97093001.987 6
G25  22157775.203 7  22157779.828 6 116439897.336 7  90732424.402 6
G28  20673973.484 7  20673976.141 6 108642490.178 7  84656504.160 6
G31  21744291.164 7  21744294.160 7 114267046.519 7  89039269.971 7
G32  21323965.844 8  21323969.664 8 112058214.678 8  87318128.064 8
R01  22692221.883 7                 121302968.945 7
R02  19565137.469 8  19565138.777 8 104403390.537 8  81202623.215 8
R03  20633561.625 8  20633563.367 8 110453101.209 8  85907959.366 8
R11  21624931.453 7  21624931.281 7 115557093.180 7  89877759.817 7
R12  20223960.539 8  20223962.801 8 108032805.409 8  84025525.733 8
R13  22544358.789 6                 120385602.271 6
R17  24080361.852 6  24080362.859 5 128858858.687 6 100223549.169 5
R18  21839064.383 7  21839065.031 7 116578450.374 7  90672088.746 7
> 2026 01 01 00 05 00.0000000  0 18
G01  22142779.250 7  22142781.637 5 116360933.676 7  90670977.430 5
G02  23577107.156 7  23577108.668 4 123898503.112 7  96544298.958 4
G03  22486596.766 7  22486602.098 6 118167826.179 7  92078873.885 6
G10  23766634.836 7  23766639.480 5 124894514.543 7  97320429.870 5
G12  23715750.297 7  23715752.691 6 124627152.523 7  97112060.653 6
G25  22150861.820 7  22150866.590 6 116403567.116 7  90704115.151 6
G28  20665846.711 7  20665849.086 6 108599782.026 7  84623225.093 6
G31  21723597.023 7  21723599.348 7 114158297.194 7  88954530.252 7
G32  21331532.664 8  21331536.988 8 112097980.757 8  87349114.617 8
R01  22709377.383 7                 121394671.220 7
R02  19568707.375 8  19568708.605 8 104422440.300 8  81217439.687 8
R03  20615657.703 8  20615659.512 8 110357261.391 8  85833417.284 8
R11  21637249.563 8  21637248.945 7 115622914.933 8  89928954.471 7
R12  20211217.109 8  20211219.195 8 107964729.100 8  83972577.506 8
R13  22516667.352 6                 120237730.450 6
R17  24102253.250 5  24102257.395 5 128976013.890 5 100314669.858 5
R18  21851749.648 7  21851751.020 7 116646170.275 7  90724759.744 7
R19  22064985.938 5  22064985.355 5 118032693.06815
> 2026 01 01 00 05 30.0000000  0 18
G01  22144474.070 7  22144476.508 5 116369841.145 7  90677918.310 5
G02  23588892.102 7  23588892.875 4 123960432.411 7  96592555.532 4
G03  22465671.258 7  22465675.484 6 118057855.995 7  91993182.855 6
G10  23784168.625 7  23784173.066 5 124986653.679 7  97392226.591 5
G12  23720518.930 7  23720520.891 5 124652209.877 7  97131585.862 5
G25  22144071.703 7  22144076.352 6 116367887.480 7  90676312.847 6
G28  20657824.273 7  20657826.461 6 108557622.908 7  84590373.837 6
G31  21702976.211 7  21702978.773 7 114049934.393 7  88870091.715 7
G32  21339158.617 8  21339162.297 8 112138051.365 8  87380338.465 8
R01  22726564.398 7                 121486546.895 7
R02  19572365.109 8  19572366.277 8 104441959.597 8  81232621.371 8
R03  20597810.250 8  20597810.926 8 110261717.345 8  85759105.255 8
R11  21649684.414 7  21649684.254 7 115689366.177 7  89980638.808 7
R12  20198617.242 8  20198619.313 8 107897423.971 8  83920229.080 8
R13  22489020.102 6                 120090098.500 6
R17  24124153.938 6  24124156.137 6 129093198.335 6 100405813.280 6
R18  21864549.953 7  21864551.676 7 116714497.564 7  90777903.161 7
R19  22055976.766 6  22055973.988 5 117984492.312 6  91765793.65115
> 2026 01 01 00 06 00.0000000  0 18
G01  22146282.164 7  22146285.055 5 116379346.012 7  90685324.669 5
G02  23600733.539 7  23600734.453 4 124022660.999 7  96641045.321 4
G03  22444800.945 7  22444804.492 5 117948181.421 7  91907722.142 5
G10  23801740.180 7  23801745.797 5 125078997.419 7  97464182.702 5
G12  23725402.406 7  23725404.336 6 124677870.339 7  97151581.069 6
G25  22137407.406 7  22137412.293 6 116332865.035 7  90649022.636 6
G28  20649906.750 7  20649909.234 6 108516018.726 7  84557954.999 6
G31  21682430.258 7  21682432.676 7 113941965.843 7  88785960.400 7
G32  21346842.125 8  21346846.500 8 112178431.290 8  87411803.336 8
R01  22743784.180 7                 121578600.411 7
R02  19576112.289 8  19576113.500 8 104461953.862 8  81248172.455 8
R03  20580017.781 8  20580018.789 7 110166476.979 8  85685029.425 7
R11  21662238.391 8  21662237.863 7 115756449.124 8  90032814.425 7
R12  20186163.703 8  20186165.223 8 107830898.026 8  83868486.702 8
R13  22461418.703 6                 119942716.043 6
R17  24146059.578 6  24146060.383 5 129210413.399 6 100496980.504 5
R18  21877463.820 7  21877465.637 7 116783433.786 7  90831520.226 7
R19  22047115.898 6  22047115.008 6 117937096.115 6  91728929.854 6
> 2026 01 01 00 06 30.0000000  0 18
G01  22148204.164 7  22148206.906 5 116389445.568 7  90693194.439 5
G02  23612631.531 7  23612632.797 4 124085184.704 7  96689765.072 4
G03  22423986.398 7  22423989.488 5 117838803.534 7  91822492.590 5
G10  23819352.328 7  23819356.926 6 125171542.220 7  97536295.510 6
G12  23730398.398 7  23730401.785 5 124704131.276 7  97172044.098 5
G25  22130867.508 7  22130872.777 6 116298499.314 7  90622244.175 6
G28  20642095.227 8  20642097.762 6 108474968.226 8  84525967.602 6
G31  21661960.047 7  21661962.055 7 113834392.096 7  88702136.715 7
G32  21354584.539 8  21354589.016 8 112219118.199 8  87443507.415 8
R01  22761038.805 7                 121670828.979 7
R02  19579948.125 8  19579948.910 8 104482421.255 8  81264091.552 8
R03  20562283.469 8  20562284.469 7 110071540.143 8  85611189.667 7
R11  21674909.586 7  21674908.973 7 115824158.368 7  90085477.146 7
R12  20173855.375 8  20173857.664 8 107765151.740 8  83817350.712 8
R13  22433867.930 6                 119795585.429 6
R17  24167968.063 6  24167969.875 6 129327653.624 6 100588167.238 6
R18  21890491.484 7  21890492.137 7 116852973.468 7  90885606.617 7
R19  22038405.891 6  22038403.563 5 117890504.279 6  91692691.769 5
> 2026 01 01 00 07 00.0000000  0 18
G01  22150239.109 7  22150241.566 5 116400138.166 7  90701526.329 5
G02  23624584.789 7  23624586.043 4 124148000.579 7  96738712.494 4
G03  22403229.547 7  22403232.355 5 117729724.171 7  91737495.655 5
G10  23836999.555 7  23837005.266 5 125264285.582 7  97608563.040 5
G12  23735510.672 7  23735512.879 5 124730990.611 7  97192973.429 5
G25  22124453.328 7  22124458.387 6 116264790.690 7  90595977.721 6
G28  20634388.688 7  20634391.316 6 108434471.117 7  84494411.415 6
G31  21641564.688 7  21641567.234 7 113727214.640 7  88618621.829 7
G32  21362384.867 8  21362389.750 8 112260110.630 8  87475449.558 8
R01  22778325.469 7                 121763230.686 7
R02  19583872.000 8  19583872.832 8 104503360.686 8  81280377.775 8
R03  20544605.367 8  20544606.508 7 109976908.654 8  85537587.403 7
R11  21687696.234 7  21687696.047 7 115892489.489 7  90138623.583 7
R12  20161693.820 8  20161695.754 8 107700186.611 8  83766822.295 8
R13  22406362.516 6                 119648710.393 6
R17  24189881.398 6  24189882.793 6 129444914.192 6 100679369.848 6
R18  21903630.594 7  21903632.172 7 116923111.852 7  90940158.657 7
R19  22029846.484 6  22029845.109 6 117844717.690 6  91657080.048 6
> 2026 01 01 00 07 30.0000000  0 18
G01  22152386.305 7  22152389.129 5 116411422.517 7  90710319.301 5
G02  23636593.602 7  23636594.293 4 124211105.671 7  96787885.255 4
G03  22382530.617 7  22382533.438 5 117620945.760 7  91652733.244 5
G10  23854685.383 6  23854691.043 5 125357225.625 6  97680983.794 5
G12  23740734.117 7  23740737.141 5 124758446.600 7  97214367.693 5
G25  22118163.820 7  22118168.789 6 116231739.979 7  90570223.923 6
G28  20626787.438 7  20626790.371 6 108394527.477 7  84463286.513 6
G31  21621245.250 7  21621247.551 7 113620435.794 7  88535417.550 7
G32  21370243.586 8  21370248.336 8 112301407.646 8  87507629.029 8
R01  22795642.188 7                 121855804.080 7
R02  19587884.203 8  19587885.285 8 104524771.887 8  81297030.912 8
R03  20526984.313 8  20526985.734 7 109882583.660 8  85464223.515 7
R11  21700599.016 7  21700599.418 7 115961439.118 7  90192251.072 7
R12  20149678.359 8  20149680.648 8 107636004.667 8  83716903.010 8
R13  22378905.461 6                 119502094.577 6
R17  24211794.766 5  24211798.922 6 129562190.615 5 100770584.758 6
R18  21916881.625 7  21916882.887 7 116993844.980 7  90995173.276 7
R19  22021438.539 5  22021436.828 6 117799737.594 5  91622095.432 6
> 2026 01 01 00 08 00.0000000  0 18
G01  22154646.742 7  22154649.574 5 116423301.099 7  90719575.319 5
G02  23648657.961 7  23648658.809 4 124274501.208 7  96837284.363 4
G03  22361887.648 7  22361892.008 5 117512474.438 7  91568210.130 5
G10  23872408.898 6  23872414.973 5 125450363.904 6  97753559.069 5
G12  23746073.945 7  23746075.730 5 124786501.506 7  97236228.699 5
G25  22112000.656 7  22112005.508 6 116199351.848 7  90544986.432 6
G28  20619292.570 7  20619295.313 6 108355141.229 7  84432595.936 6
G31  21601002.758 7  21601005.332 7 113514061.055 7  88452528.161 7
G32  21378160.711 8  21378165.031 8 112343012.109 8  87540048.096 8
R01  22812992.156 7                 121948551.773 7
R02  19591986.195 8  19591987.012 8 104546658.248 8  81314053.642 8
R03  20509421.422 8  20509423.102 7 109788570.355 8  85391102.054 7
R11  21713617.414 7  21713617.609 7 116031006.908 7  90246359.339 7
R12  20137811.898 8  20137813.672 8 107572611.666 8  83667597.361 8
R13  22351500.500 6                 119355745.867 6
R17  24233716.945 5  24233717.789 6 129679482.848 5 100861812.059 6
R18  21930243.625 7  21930244.844 7 117065172.325 7  91050650.079 7
R19  22013183.008 5  22013180.055 6 117755569.152 5  91587742.062 6
> 2026 01 01 00 08 30.0000000  0 17
G01  22157020.047 7  22157023.316 5 116435773.669 7  90729294.214 5
G02  23660776.063 7  23660777.297 4 124338185.426 7  96886908.423 4
G03  22341305.883 7  22341309.770 5 117404313.775 7  91483929.075 5
G10  23890170.563 6  23890176.000 5 125543699.594 6  97826288.144 5
G12  23751526.492 6  23751528.559 5 124815154.813 6  97258555.925 5
G25  22105963.703 7  22105968.895 6 116167628.127 7  90520266.646 6
G28  20611903.750 7  20611906.578 6 108316313.552 7  84402340.614 6
G31  21580838.164 7  21580840.281 7 113408093.535 7  88369956.086 7
G32  21386136.148 8  21386140.699 8 112384924.135 8  87572706.804 8
R01  22830375.023 7                 122041473.376 7
R02  19596176.586 8  19596177.352 8 104569020.427 8  81331446.441 8
R03  20491918.047 8  20491919.090 7 109694872.017 8  85318225.575 7
R11  21726751.359 8  21726751.805 7 116101190.712 8  90300946.729 7
R12  20126092.945 8  20126094.496 8 107510010.685 8  83618907.729 8
R13  22324144.625 6                 119209669.375 6
R17  24255636.578 5  24255639.691 5 129796787.838 5 100953049.158 5
R18  21943716.016 7  21943716.914 7 117137090.946 7  91106586.756 7
> 2026 01 01 00 09 00.0000000  0 17
G01  22159505.273 7  22159508.809 5 116448836.695 7  90739473.174 5
G02  23672949.320 7  23672949.469 4 124402153.397 7  96936753.542 4
G03  22320782.398 7  22320785.980 5 117296463.915 7  91399890.183 5
G10  23907968.461 6  23907973.961 5 125637228.384 6  97899167.704 5
G12  23757091.930 6  23757093.582 5 124844402.324 6  97281346.201 5
G25  22100052.797 7  22100057.707 6 116136567.343 7  90496063.460 6
G28  20604621.320 7  20604623.828 6 108278042.262 7  84372518.842 6
G31  21560750.742 7  21560752.691 7 113302533.155 7  88287701.258 7
G32  21394170.508 8  21394174.258 8 112427140.560 8  87605602.724 8
R01  22847789.758 7                 122134565.332 7
R02  19600455.594 8  19600456.945 8 104591855.737 8  81349207.231 8
R03  20474472.641 8  20474474.266 7 109601487.780 8  85245593.402 7
R11  21739999.992 7  21739999.992 7 116171984.419 7  90356008.537 7
R12  20114522.211 8  20114523.512 8 107448201.246 8  83570833.730 8
R13  22296839.984 6                 119063866.675 6
R17  24277558.313 6  24277562.801 5 129914099.056 6 101044291.305 5
R18  21957298.469 7  21957298.957 7 117209594.315 7  91162978.237 7
> 2026 01 01 00 09 30.0000000  0 17
G01  22162103.922 7  22162106.590 5 116462487.038 7  90750109.811 5
G02  23685174.383 6  23685176.227 4 124466400.855 6  96986816.496 4
G03  22300318.633 7  22300322.809 5 117188925.425 7  91316093.937 5
G10  23925802.766 6  23925808.258 5 125730946.448 6  97972194.715 5
G12  23762770.109 7  23762771.801 5 124874240.399 7  97304596.613 5
G25  22094268.344 7  22094273.719 6 116106168.450 7  90472376.030 6
G28  20597442.914 7  20597446.699 6 108240325.698 7  84343129.301 6
G31  21540740.539 7  21540742.895 7 113197379.871 7  88205763.645 7
G32  21402261.258 8  21402265.027 8 112469658.591 8  87638733.648 8
R01  22865236.492 7                 122227824.394 7
R02  19604823.289 8  19604824.535 8 104615161.726 8  81367334.120 8
R03  20457086.594 8  20457087.551 7 109508417.527 8  85173205.415 7
R11  21753361.508 7  21753361.102 7 116243381.451 7  90411539.521 7
R12  20103098.711 8  20103100.723 8 107387183.219 8  83523375.277 8
R13  22269586.227 6                 118918339.630 6
R17  24299479.586 5  24299483.184 4 130031410.74715 101135533.54514
R18  21970989.344 7  21970990.883 7 117282676.306 7  91219819.748 7
> 2026 01 01 00 10 00.0000000  0 18
G01  22164812.438 7  22164814.953 5 116476722.699 7  90761202.508 5
G02  23697453.805 7  23697454.426 4 124530924.588 7  97037094.709 4
G03  22279913.992 7  22279918.379 5 117081700.101 7  91232541.713 5
G10  23943671.773 6  23943677.863 5 125824851.108 6  98045367.143 5
G12  23768559.688 6  23768562.645 5 124904666.921 6  97328305.604 5
G25  22088609.625 7  22088614.590 6 116076431.564 7  90449204.443 6
G28  20590371.867 7  20590374.848 6 108203163.160 7  84314171.521 6
G31  21520808.063 7  21520810.465 7 113092635.033 7  88124144.309 7
G32  21410409.227 8  21410413.219 8 112512476.679 8  87672098.394 8
R01  22882712.648 7                 122321248.498 7
R02  19609278.945 8  19609279.859 8 104638937.455 8  81385826.327 8
R03  20439759.344 8  20439760.320 7 109415662.717 8  85101062.761 7
R11  21766834.211 7  21766833.918 7 116315378.157 7  90467537.001 7
R12  20091825.555 8  20091826.656 8 107326958.065 8  83476533.502 8
R13  22242386.531 6                 118773091.298 6
R17  24321410.805 4  24321409.180 4 130148723.02614 101226820.43914
R18  21984787.773 7  21984789.273 7 117356332.060 7  91277107.549 7
R19  21981671.398 5  21981671.531 6 117586964.43615  91456644.51816
> 2026 01 01 00 10 30.0000000  0 17
G01  22167632.617 7  22167635.805 5 116491543.289 7  90772751.013 5
G02  23709785.320 7  23709785.184 4 124595722.654 7  97087586.689 4
G03  22259570.148 6  22259574.094 5 116974791.495 6  91149236.309 5
G10  23961577.203 6  23961583.043 5 125918941.380 6  98118684.203 5
G12  23774461.672 6  23774463.871 5 124935681.435 6  97352472.746 5
G25  22083076.805 7  22083082.340 6 116047358.454 7  90426550.068 6
G28  20583406.859 8  20583408.938 6 108166555.847 8  84285646.367 6
G31  21500954.125 7  21500956.453 7 112988301.950 7  88042845.815 7
G32  21418613.742 7  21418618.441 8 112555595.003 7  87705697.073 8
R01  22900220.961 7                 122414837.363 7
R02  19613822.516 8  19613823.586 8 104663183.348 8  81404684.252 8
R03  20422490.719 8  20422492.648 7 109323225.876 8  85029167.444 7
R11  21780419.336 7  21780418.758 7 116387971.229 7  90523998.235 7
R12  20080699.383 8  20080701.078 8 107267528.279 8  83430310.335 8
R13  22215239.297 6                 118628127.652 6
R18  21998693.656 7  21998693.777 7 117430558.490 7  91334839.172 7
R19  21974176.133 5  21974174.160 6 117546860.141 5  91425452.300 6
> 2026 01 01 00 11 00.0000000  0 17
G01  22170564.391 7  22170566.699 5 116506945.404 7  90784752.668 5
G02  23722166.156 7  23722166.574 4 124660790.271 7  97138288.717 4
G03  22239286.492 7  22239290.656 6 116868199.898 7  91066177.946 6
G10  23979516.328 6  23979521.668 5 126013213.227 6  98192142.736 5
G12  23780475.023 6  23780476.895 5 124967279.816 6  97377094.865 5
G25  22077671.008 7  22077675.570 6 116018947.620 7  90404411.766 6
G28  20576545.898 8  20576547.805 6 108130501.762 8  84257552.251 6
G31  21481178.586 7  21481180.902 7 112884380.418 7  87961868.013 7
G32  21426875.859 8  21426880.324 8 112599010.517 8  87739527.333 8
R01  22917759.047 7                 122508587.573 7
R02  19618453.813 8  19618455.043 8 104687896.859 8  81423905.861 8
R03  20405283.016 8  20405284.277 7 109231106.758 8  84957519.234 7
R11  21794113.563 7  21794114.512 7 116461155.351 7  90580919.206 7
R12  20069722.516 8  20069724.570 8 107208893.680 8  83384705.665 8
R13  22188146.641 6                 118483449.678 6
R18  22012703.461 7  22012704.977 7 117505349.244 7  91393009.733 7
R19  21966830.680 6  21966830.133 6 117507569.029 6  91394892.587 6
> 2026 01 01 00 11 30.0000000  0 17
G01  22173605.070 7  22173608.699 5 116522930.367 7  90797208.458 5
G02  23734600.156 6  23734600.164 4 124726127.571 6  97189200.857 4
G03  22219064.039 7  22219068.781 6 116761930.592 7  90983370.711 6
G10  23997490.258 6  23997495.602 5 126107667.316 6  98265743.299 5
G12  23786599.148 6  23786601.605 5 124999462.751 6  97402172.479 5
G25  22072391.141 7  22072396.012 6 115991202.559 7  90382792.247 6
G28  20569790.906 8  20569792.680 6 108095003.559 8  84229891.336 6
G31  21461482.359 7  21461484.535 7 112780875.088 7  87881214.532 7
G32  21435194.344 8  21435198.777 8 112642725.059 8  87773590.608 8
R01  22935327.367 7                 122602500.567 7
R02  19623173.258 8  19623174.332 8 104713080.370 8  81443493.028 8
R03  20388134.328 8  20388135.730 8 109139309.789 8  84886121.587 8
R11  21807920.758 7  21807919.883 7 116534928.296 7  90638298.180 7
R12  20058895.695 8  20058897.652 8 107151058.746 8  83339722.961 8
R13  22161106.828 6                 118339064.437 6
R18  22026820.445 7  22026820.777 7 117580702.908 7  91451618.089 7
R19  21959637.711 6  21959636.711 5 117469094.846 6  91364968.260 5
> 2026 01 01 00 12 00.0000000  0 17
G01  22176758.375 7  22176761.063 5 116539497.371 7  90810117.806 5
G02  23747083.734 6  23747084.750 4 124791732.501 6  97240321.585 4
G03  22198903.797 7  22198908.270 6 116655986.602 7  90900816.963 6
G10  24015498.617 6  24015504.559 5 126202302.240 6  98339484.782 5
G12  23792834.344 6  23792836.793 5 125032229.599 6  97427705.080 5
G25  22067238.125 7  22067243.168 7 115964124.474 7  90361692.474 7
G28  20563141.523 8  20563143.520 7 108060061.928 8  84202664.081 7
G31  21441865.188 7  21441867.484 7 112677788.408 7  87800887.269 7
G32  21443569.531 8  21443574.063 8 112686738.324 8  87807886.640 8
R01  22952926.422 6                 122696575.756 6
R02  19627980.883 8  19627981.867 8 104738733.928 8  81463445.792 8
R03  20371046.641 8  20371048.047 7 109047837.212 8  84814976.255 7
R11  21821835.594 8  21821834.945 7 116609288.117 8  90696133.604 7
R12  20048219.414 8  20048221.141 8 107094025.725 8  83295363.947 8
R13  22134124.117 6                 118194976.343 6
R18  22041040.773 7  22041042.316 7 117656615.735 7  91510661.356 7
R19  21952597.945 6  21952597.422 5 117431439.018 6  91335680.368 5
> 2026 01 01 00 12 30.0000000  0 17
G01  22180019.969 7  22180023.340 5 116556639.923 7  90823475.637 5
G02  23759617.039 6  23759617.777 4 124857597.586 6  97291645.008 4
G03  22178805.477 7  22178808.477 6 116550365.417 7  90818514.738 6
G10  24033539.945 6  24033546.453 5 126297111.113 6  98413361.760 5
G12  23799179.523 6  23799181.184 5 125065573.453 6  97453687.298 5
G25  22062211.766 7  22062216.277 6 115937709.049 7  90341109.028 6
G28  20556596.977 8  20556599.590 6 108025671.865 8  84175866.629 6
G31  21422327.766 7  21422330.191 7 112575117.695 7  87720884.121 7
G32  21452001.164 8  21452005.082 8 112731044.403 8  87842410.852 8
R01  22970554.477 7                 122790806.265 7
R02  19632875.359 8  19632876.484 8 104764852.143 8  81483759.954 8
R03  20354019.367 8  20354020.086 7 108956685.926 8  84744080.815 7
R11  21835857.945 7  21835858.805 7 116684225.171 7  90754417.956 7
R12  20037691.500 8  20037693.789 8 107037791.132 8  83251625.946 8
R13  22107196.273 6                 118051184.130 6
R18  22055365.242 7  22055366.668 7 117733078.396 7  91570132.302 7
R19  21945711.578 6  21945709.609 4 117394597.270 6  91307025.611 4
> 2026 01 01 00 13 00.0000000  0 17
G01  22183392.227 7  22183394.754 5 116574359.675 7  90837283.210 5
G02  23772200.453 6  23772200.969 4 124923722.859 6  97343171.169 4
G03  22158768.539 7  22158772.402 6 116445072.595 7  90736468.374 6
G10  24051614.992 6  24051620.949 5 126392094.802 6  98487374.993 5
G12  23805634.750 6  23805636.047 5 125099495.736 6  97480120.275 5
G25  22057311.867 7  22057316.996 6 115911959.867 7  90321044.739 6
G28  20550158.055 8  20550160.621 6 107991836.371 8  84149501.325 6
G31  21402870.563 7  21402872.598 7 112472868.001 7  87641209.055 7
G32  21460488.313 8  21460492.570 8 112775645.521 8  87877164.953 8
R01  22988210.602 7                 122885194.284 7
R02  19637857.141 8  19637858.457 8 104791437.530 8  81504437.475 8
R03  20337052.219 8  20337053.172 8 108865860.434 8  84673438.741 8
R11  21849990.883 7  21849989.809 7 116759739.108 7  90813151.028 7
R12  20027315.492 8  20027316.633 8 106982359.810 8  83208512.693 8
R13  22080326.328 6                 117907695.465 6
R18  22069791.680 7  22069793.594 7 117810089.712 7  91630029.967 7
R19  21938977.281 6  21938976.773 5 117358573.545 6  91279007.113 5
> 2026 01 01 00 13 30.0000000  0 17
G01  22186874.891 7  22186877.543 5 116592660.605 7  90851543.652 5
G02  23784833.469 6  23784834.926 4 124990110.926 6  97394902.116 4
G03  22138796.055 6  22138799.961 5 116340115.914 6  90654683.972 5
G10  24069724.102 6  24069729.277 5 126487256.820 6  98561527.179 5
G12  23812199.766 6  23812203.859 5 125133999.794 6  97507006.498 5
G25  22052539.336 7  22052544.871 6 115886882.890 7  90301504.254 6
G28  20543825.969 8  20543828.617 6 107958560.893 8  84123572.388 6
G31  21383494.461 7  21383496.379 7 112371046.467 7  87561867.616 7
G32  21469032.563 8  21469037.137 8 112820546.110 8  87912152.427 8
R01  23005898.305 7                 122979743.984 7
R02  19642928.250 8  19642928.691 8 104818495.224 8  81525482.344 8
R03  20320147.133 8  20320148.770 8 108775368.563 8  84603056.201 8
R11  21864230.508 7  21864230.199 7 116835830.816 7  90872333.473 7
R12  20017089.953 8  20017091.551 8 106927738.664 8  83166029.589 8
R13  22053513.914 6                 117764519.135 6
R18  22084322.016 7  22084322.574 7 117887650.946 7  91690355.337 7
R19  21932396.930 7  21932395.652 6 117323374.449 7  91251630.000 6
> 2026 01 01 00 14 00.0000000  0 17
G01  22190466.242 7  22190469.832 5 116611535.083 7  90866251.027 5
G02  23797515.133 6  23797515.852 4 125056753.664 6  97446831.502 4
G03  22118886.281 6  22118890.531 6 116235491.962 6  90573158.823 6
G10  24087864.313 6  24087870.129 5 126582589.092 6  98635812.047 5
G12  23818875.852 6  23818877.391 4 125169077.218 6  97534339.554 4
G25  22047894.758 7  22047899.602 6 115862472.636 7  90282483.274 6
G28  20537598.852 7  20537601.719 6 107925839.284 7  84098075.024 6
G31  21364198.938 7  21364201.176 7 112269648.866 7  87482856.522 7
G32  21477632.266 8  21477637.004 8 112865739.228 8  87947367.829 8
R01  23023615.055 6                 123074447.728 6
R02  19648085.766 8  19648086.598 8 104846018.484 8  81546889.313 8
R03  20303304.297 8  20303305.598 8 108685206.165 8  84532929.888 8
R11  21878574.641 7  21878575.469 7 116912491.112 7  90931958.130 7
R12  20007015.258 8  20007017.434 8 106873923.188 8  83124173.131 8
R13  22026759.195 6                 117621653.186 6
R18  22098953.164 7  22098954.063 7 117965751.543 7  91751100.227 7
R19  21925970.016 7  21925969.125 6 117288994.243 7  91224889.860 6
> 2026 01 01 00 14 30.0000000  0 18
G01  22194167.852 7  22194170.629 5 116630984.757 7  90881406.610 5
G02  23810246.109 7  23810246.273 4 125123651.151 7  97498959.400 4
G03  22099041.742 7  22099046.105 6 116131206.311 7  90491897.289 6
G10  24106037.945 6  24106044.727 5 126678092.820 6  98710230.458 5
G12  23825660.398 6  23825661.801 4 125204730.039 6  97562120.959 4
G25  22043377.516 7  22043381.348 7 115838732.802 7  90263984.724 7
G26  24942740.336 5  24942746.133 3 131074997.74515 102136371.66513
G28  20531478.461 7  20531481.156 6 107893674.726 7  84073011.748 6
G31  21344985.219 7  21344987.621 7 112168680.569 7  87404179.947 7
G32  21486288.836 8  21486293.113 8 112911227.199 8  87982812.999 8
R01  23041359.875 6                 123169307.550 6
R02  19653331.781 8  19653332.434 8 104874010.094 8  81568660.555 8
R03  20286523.484 8  20286524.508 8 108595377.018 8  84463062.765 8
R11  21893028.445 8  21893027.832 7 116989719.092 8  90992024.323 7
R12  19997092.984 8  19997094.504 8 106820918.030 8  83082946.902 8
R13  22000063.492 6                 117479104.875 6
R18  22113684.727 7  22113686.125 7 118044390.547 7  91812263.861 7
R19  21919697.789 7  21919696.172 6 117255436.908 7  91198789.680 6
> 2026 01 01 00 15 00.0000000  0 18
G01  22197977.188 7  22197980.355 5 116651005.526 7  90897007.189 5
G02  23823023.789 7  23823024.621 4 125190798.491 7  97551281.950 4
G03  22079261.063 7  22079265.695 6 116027258.879 7  90410899.290 6
G10  24124244.836 6  24124249.820 5 126773763.220 6  98784778.822 5
G12  23832553.344 6  23832554.707 4 125240953.793 6  97590347.275 4
G25  22038986.281 7  22038992.016 6 115815661.237 7  90246006.884 6
G26  24917535.102 5
G28  20525463.563 8  20525465.734 6 107862064.454 8  84048380.375 6
G31  21325853.055 7  21325855.555 7 112068140.845 7  87325837.313 7
G32  21495000.297 7  21495004.434 8 112957006.458 7  88018485.137 8
R01  23059135.219 7                 123264319.094 7
R02  19658664.031 8  19658665.141 8 104902466.945 8  81590793.663 8
R03  20269804.266 8  20269806.469 8 108505881.694 8  84393455.295 8
R11  21907584.344 7  21907585.242 7 117067507.726 7  91052526.593 7
R12  19987321.508 8  19987323.520 8 106768722.023 8  83042350.012 8
R13  21973429.391 6                 117336875.608 6
R18  22128516.055 7  22128516.918 7 118123560.744 7  91873840.677 7
R19  21913576.172 6  21913576.438 6 117222700.635 6  91173328.082 6
> 2026 01 01 00 15 30.0000000  0 18
G01  22201895.648 7  22201898.992 5 116671595.028 7  90913050.958 5
G02  23835847.938 6  23835848.977 4 125258191.609 6  97603796.071 4
G03  22059545.203 7  22059549.883 7 115923651.424 7  90330166.183 7
G10  24142480.781 6  24142486.258 5 126869597.698 6  98859454.984 5
G12  23839554.375 6  23839555.891 4 125277745.395 6  97619016.018 4
G25  22034723.523 7  22034728.184 7 115793257.650 7  90228549.560 7
G26  24892329.539 5  24892336.680 3 130810099.96415 101929957.86913
G28  20519552.930 7  20519555.883 6 107831007.693 7  84024180.301 6
G31  21306803.281 8  21306805.324 7 111968030.743 8  87247829.465 7
G32  21503766.672 8  21503771.000 8 113003075.428 8  88054383.036 8
R01  23076937.273 6                 123359480.682 6
R02  19664083.938 8  19664085.457 8 104931387.671 8  81613287.550 8
R03  20253149.102 8  20253150.285 8 108416720.448 8  84324107.672 8
R11  21922245.844 8  21922245.656 7 117145852.821 8  91113461.667 7
R12  19977702.000 8  19977703.508 8 106717335.835 8  83002382.987 8
R13  21946855.117 6                 117194968.590 6
R18  22143444.570 7  22143447.047 7 118203257.216 7  91935826.767 7
R19  21907611.094 7  21907609.137 6 117190785.081 7  91148504.910 6
> 2026 01 01 00 16 00.0000000  0 18
G01  22205922.375 7  22205925.070 5 116692755.604 7  90929539.706 5
G02  23848719.211 6  23848720.344 4 125325831.972 6  97656502.835 4
G03  22039894.852 7  22039899.652 7 115820390.281 7  90249702.954 7
G10  24160749.695 6  24160753.984 5 126965598.075 6  98934260.469 5
G12  23846663.484 6  23846666.020 4 125315107.152 6  97648129.071 4
G25  22030587.961 7  22030593.496 6 115771526.337 7  90211616.077 6
G26  24867125.523 5  24867131.027 3 130677646.49715 101826747.38213
G28  20513749.352 7  20513752.000 6 107800508.154 7  84000414.439 6
G31  21287835.242 7  21287837.832 7 111868356.175 7  87170160.998 7
G32  21512588.930 8  21512593.676 8 113049437.025 8  88090508.950 8
R01  23094768.078 7                 123454794.726 7
R02  19669591.438 8  19669592.355 8 104960775.615 8  81636144.848 8
R03  20236556.109 8  20236557.203 8 108327898.942 8  84255024.270 8
R11  21937010.742 7  21937011.293 7 117224754.112 7  91174829.351 7
R12  19968235.320 8  19968236.957 8 106666764.815 8  82963049.999 8
R13  21920342.070 6                 117053391.444 6
R18  22158473.359 7  22158475.129 7 118283479.403 7  91998221.812 7
R19  21901799.445 7  21901798.344 6 117159694.709 7  91124323.590 6
> 2026 01 01 00 16 30.0000000  0 18
G01  22210057.188 7  22210059.984 5 116714484.487 7  90946471.295 5
G02  23861637.250 6  23861638.230 4 125393715.938 6  97709399.401 4
G03  22020311.453 7  22020315.949 7 115717476.880 7  90169510.696 7
G10  24179048.156 6  24179054.352 5 127061761.197 6  99009192.731 5
G12  23853881.133 6  23853883.945 4 125353035.678 6  97677683.781 4
G25  22026580.055 7  22026585.410 6 115750466.550 7  90195205.863 6
G26  24841921.023 5  24841926.027 3 130545193.908 5 101723537.640 3
G28  20508050.984 7  20508054.020 6 107770564.646 7  83977081.845 6
G31  21268951.047 7  21268953.336 7 111769118.122 7  87092832.667 7
G32  21521466.711 8  21521471.035 8 113096089.276 8  88126861.348 8
R01  23112625.633 6                 123550258.766 6
R02  19675185.602 8  19675186.781 8 104990629.294 8  81659364.355 8
R03  20220026.938 8  20220028.605 8 108239418.249 8  84186205.953 8
R11  21951880.578 7  21951879.219 7 117304206.758 7  91236625.843 7
R12  19958920.789 8  19958922.117 8 106617009.084 8  82924351.108 8
R13  21893892.586 6                 116912147.269 6
R18  22173599.047 7  22173601.445 7 118364222.101 7  92061021.629 7
R19  21896140.656 6  21896140.359 6 117129429.244 6  91100783.797 6
> 2026 01 01 00 17 00.0000000  0 18
G01  22214299.938 7  22214302.742 5 116736781.296 7  90963845.423 5
G02  23874601.188 6  23874602.211 4 125461842.055 6  97762484.669 4
G03  22000794.555 7  22000799.285 7 115614914.902 7  90089592.275 7
G10  24197379.109 6  24197384.711 5 127158086.331 6  99084251.240 5
G12  23861208.180 6  23861209.938 4 125391530.420 6  97707679.721 4
G25  22022700.938 7  22022706.066 6 115730080.000 7  90179320.255 6
G26  24816715.977 6  24816722.355 3 130412745.94516 101620331.43213
G28  20502458.742 7  20502461.813 6 107741178.239 7  83954183.358 6
G31  21250150.438 7  21250152.457 7 111670319.662 7  87015846.861 7
G32  21530399.727 8  21530404.043 8 113143032.524 8  88163440.488 8
R01  23130511.141 6                 123645872.915 6
R02  19680867.578 8  19680868.680 8 105020949.470 8  81682946.727 8
R03  20203561.531 8  20203563.781 8 108151280.982 8  84117654.770 8
R11  21966851.023 7  21966851.000 7 117384207.701 7  91298848.808 7
R12  19949759.352 8  19949761.047 8 106568071.368 8  82886288.438 8
R13  21867503.805 6                 116771241.099 6
R18  22188821.984 7  22188824.141 7 118445481.978 7  92124223.709 7
R19  21890637.953 6  21890636.633 6 117099990.244 6  91077886.847 6
> 2026 01 01 00 17 30.0000000  0 18
G01  22218649.773 7  22218653.512 5 116759641.274 7  90981658.359 5
G02  23887609.813 6  23887611.027 4 125530204.354 6  97815753.973 4
G03  21981344.570 7  21981348.910 7 115512703.641 7  90009947.151 7
G10  24215738.336 6  24215744.078 5 127254568.225 6  99159431.854 5
G12  23868639.289 6  23868641.191 4 125430586.537 6  97738113.087 4
G25  22018949.047 7  22018954.191 6 115710363.729 7  90163956.930 6
G26  24791511.633 5  24791519.875 3 130280302.250 5 101517128.614 3
G28  20496972.781 7  20496975.398 6 107712345.590 7  83931716.372 6
G31  21231432.633 7  21231435.012 7 111571958.975 7  86939202.196 7
G32  21539387.133 8  21539391.641 8 113190262.637 8  88200243.154 8
R01  23148426.078 6                 123741632.334 6
R02  19686636.453 8  19686637.680 8 105051732.141 8  81706888.790 8
R03  20187162.156 8  20187163.332 8 108063486.786 8  84049370.376 8
R11  21981923.352 7  21981923.672 7 117464749.926 7  91361492.731 7
R12  19940750.852 8  19940752.414 8 106519949.573 8  82848860.373 8
R13  21841181.195 7                 116630674.008 7
R18  22204141.070 7  22204142.066 7 118527251.349 7  92187822.103 7
R19  21885289.344 6  21885287.801 6 117071375.102 6  91055630.599 6
> 2026 01 01 00 18 00.0000000  0 18
G01  22223108.039 7  22223110.617 5 116783064.700 7  90999910.374 5
G02  23900663.680 6  23900665.313 4 125598801.798 6  97869206.513 4
G03  21961961.961 7  21961966.117 7 115410847.630 7  89930578.833 7
G10  24234127.922 6  24234133.762 4 127351206.843 6  99234734.642 4
G12  23876178.727 6  23876181.277 4 125470203.537 6  97768983.452 4
G25  22015325.336 7  22015330.113 6 115691320.071 7  90149117.740 6
G26  24766310.430 5  24766318.289 3 130147867.59015 101413932.82313
G28  20491591.523 7  20491594.316 6 107684068.523 7  83909682.303 6
G31  21212799.688 7  21212801.918 7 111474040.651 7  86862902.225 7
G32  21548429.969 8  21548434.152 8 113237780.756 8  88237270.261 8
R01  23166365.992 6                 123837537.989 6
R02  19692492.734 8  19692492.867 8 105082979.106 8  81731191.977 8
R03  20170825.070 8  20170827.293 8 107976038.515 8  83981355.077 8
R11  21997097.086 7  21997096.363 7 117545831.400 7  91424556.096 7
R12  19931896.383 8  19931897.570 8 106472647.143 8  82812069.615 8
R13  21814920.836 6                 116490451.541 6
R18  22219554.023 7  22219555.105 7 118609527.898 7  92251814.924 7
R19  21880093.422 6  21880092.043 6 117043586.194 6  91034016.987 6
> 2026 01 01 00 18 30.0000000  0 18
G01  22227672.023 7  22227675.172 5 116807051.805 7  91018601.622 5
G02  23913762.328 6  23913763.000 4 125667633.884 6  97922841.882 4
G03  21942647.758 7  21942652.512 7 115309351.344 7  89851490.819 7
G10  24252548.094 6  24252552.855 4 127448002.108 6  99310159.516 4
G12  23883824.055 6  23883826.836 4 125510381.371 6  97800290.752 4
G25  22011828.906 7  22011834.785 7 115672951.285 7  90134804.410 7
G26  24741113.227 6  24741120.133 4 130015446.614 6 101310747.661 4
G28  20486316.945 8  20486319.391 6 107656348.761 8  83888082.491 6
G31  21194250.883 7  21194253.453 7 111376568.173 7  86786949.666 7
G32  21557527.031 8  21557531.512 8 113285587.913 8  88274522.583 8
R01  23184335.203 6                 123933590.410 6
R02  19698434.930 8  19698436.063 8 105114691.601 8  81755857.247 8
R03  20154554.641 8  20154556.102 8 107888940.078 8  83913611.859 8
R11  22012370.680 7  22012369.996 7 117627450.197 7  91488037.375 7
R12  19923194.906 8  19923196.332 8 106426166.809 8  82775918.261 8
R13  21788727.766 6                 116350579.854 6
R18  22235062.398 7  22235063.324 7 118692309.224 7  92316200.373 7
R19  21875053.195 6  21875053.586 6 117016626.032 6  91013047.877 6
> 2026 01 01 00 19 00.0000000  0 18
G01  22232343.484 7  22232346.039 5 116831598.268 7  91037728.709 5
G02  23926903.391 6  23926904.930 4 125736695.339 6  97976655.983 4
G03  21923402.133 7  21923406.621 7 115208214.535 7  89772682.922 7
G10  24270996.477 6  24271001.801 5 127544949.261 6  99385702.749 5
G12  23891575.180 6  23891576.172 3 125551115.425 6  97832031.680 3
G25  22008462.234 7  22008467.430 7 115655254.858 7  90121014.988 7
G26  24715916.648 5  24715923.773 4 129883039.279 5 101207573.150 4
G28  20481147.328 8  20481150.066 6 107629183.418 8  83866914.693 6
G31  21175787.258 7  21175789.766 7 111279540.607 7  86711343.793 7
G32  21566678.547 8  21566683.445 8 113333680.503 8  88311997.306 8
R01  23202330.188 7                 124029785.325 7
R02  19704464.648 8  19704465.770 8 105146866.305 8  81780882.004 8
R03  20138349.289 8  20138350.770 8 107802190.918 8  83846140.281 8
R11  22027743.898 7  22027743.535 7 117709599.604 7  91551931.377 7
R12  19914647.148 8  19914648.402 8 106380507.276 8  82740405.302 8
R13  21762601.117 7                 116211060.419 7
R18  22250664.000 7  22250663.820 7 118775588.070 7  92380972.744 7
R19  21870167.203 6  21870167.273 6 116990491.910 6  90992721.335 6
> 2026 01 01 00 19 30.0000000  0 18
G01  22237119.992 7  22237122.813 5 116856699.490 7  91057288.086 5
G02  23940088.586 6  23940089.598 3 125805980.357 6  98030644.263 3
G03  21904225.398 7  21904229.109 7 115107436.911 7  89694154.917 7
G10  24289473.195 6  24289478.801 5 127642043.528 6  99461360.555 5
G12  23899431.727 5  23899434.984 3 125592400.979 5  97864202.234 3
G25  22005221.836 7  22005227.148 7 115638228.297 7  90107747.556 7
G26  24690722.492 5  24690730.570 4 129750645.652 5 101104409.292 4
G28  20476083.141 8  20476085.672 6 107602569.449 8  83846176.533 6
G31  21157408.430 7  21157410.578 7 111182957.141 7  86636083.956 7
G32  21575884.344 8  21575888.887 8 113382054.843 8  88349691.603 8
R01  23220351.672 7                 124126118.884 7
R02  19710580.180 8  19710581.309 8 105179499.838 8  81806263.638 8
R03  20122208.492 8  20122210.469 8 107715790.006 8  83778939.601 8
R11  22043215.414 7  22043214.633 7 117792272.650 7  91616232.634 7
R12  19906252.805 8  19906254.301 8 106335666.774 8  82705529.353 8
R13  21736538.633 7                 116071894.147 7
R18  22266355.398 7  22266357.176 7 118859357.293 7  92446126.560 7
R19  21865436.727 7  21865436.492 7 116965181.486 7  90973035.482 7
> 2026 01 01 00 20 00.0000000  0 18
G01  22242002.445 7  22242005.195 5 116882356.854 7  91077280.843 5
G02  23953315.836 6  23953316.965 4 125875489.938 6  98084807.568 4
G03  21885116.883 7  21885121.352 7 115007024.123 7  89615911.190 7
G10  24307977.469 6  24307983.527 5 127739286.044 6  99537133.865 5
G12  23907393.531 5  23907395.273 3 125634239.139 5  97896803.326 3
G25  22002109.914 7  22002115.004 6 115621874.842 7  90095004.623 6
G26  24665532.789 5  24665539.309 4 129618271.577 5 101001260.747 4
G28  20471124.195 8  20471126.605 6 107576509.729 8  83825870.270 6
G31  21139114.289 7  21139116.742 7 111086822.722 7  86561174.033 7
G32  21585143.578 8  21585147.965 8 113430713.161 8  88387607.153 8
R01  23238399.555 6                 124222592.728 6
R02  19716782.055 8  19716783.422 8 105212594.875 8  81832004.204 8
R03  20106134.438 8  20106135.672 8 107629741.508 8  83712012.990 8
R11  22058783.781 7  22058783.738 7 117875468.665 7  91680940.610 7
R12  19898012.773 8  19898014.102 8 106291649.434 8  82671293.662 8
R13  21710545.602 7                 115933087.926 7
R18  22282140.813 7  22282141.773 7 118943615.518 7  92511660.708 7
R19  21860861.070 7  21860858.555 6 116940697.985 7  90953992.749 6
> 2026 01 01 00 20 30.0000000  0 18
G01  22246991.258 7  22246994.301 5 116908572.932 7  91097708.922 5
G02  23966585.734 6  23966586.918 3 125945225.129 6  98139146.671 3
G03  21866079.422 7  21866084.117 7 114906982.907 7  89537957.010 7
G10  24326510.734 6  24326515.879 4 127836679.016 6  99613024.416 4
G12  23915459.594 5  23915461.715 3 125676631.906 5  97929836.623 3
G25  21999127.031 7  21999132.199 7 115606199.019 7  90082789.686 7
G26  24640348.430 6  24640353.535 3 129485924.208 6 100898132.908 3
G28  20466271.102 7  20466273.703 7 107551008.288 7  83805999.022 7
G31  21120907.203 7  21120909.707 7 110991143.548 7  86486618.857 7
G32  21594457.477 8  21594462.148 8 113479658.834 8  88425746.632 8
R01  23256473.477 6                 124319209.963 6
R02  19723071.234 8  19723072.457 8 105246155.067 8  81858106.592 8
R03  20090126.773 8  20090128.457 8 107544052.561 8  83645366.044 8
R11  22074450.867 7  22074450.641 7 117959187.810 7  91746055.501 7
R12  19889927.453 8  19889928.953 8 106248460.518 8  82637702.292 8
R13  21684618.977 7                 115794650.302 7
R18  22298016.000 7  22298016.816 7 119028362.645 7  92577575.131 7
R19  21856437.648 7  21856437.707 7 116917046.138 7  90935596.854 7
> 2026 01 01 00 21 00.0000000  0 18
G01  22252085.109 7  22252087.996 5 116935341.554 7  91118567.587 5
G02  23979898.195 6  23979898.219 4 126015178.979 6  98193656.138 4
G03  21847112.336 7  21847117.336 7 114807311.492 7  89460290.986 7
G10  24345070.680 6  24345077.105 5 127934215.980 6  99689027.214 5
G12  23923632.414 5  23923633.520 3 125719572.763 5  97963297.075 3
G25  21996272.344 7  21996276.809 6 115591196.555 7  90071099.477 6
G26  24615167.641 5  24615173.188 3 129353601.846 5 100795024.594 3
G28  20461523.844 7  20461526.152 6 107526060.516 7  83786559.201 6
G31  21102785.977 7  21102788.570 7 110895917.059 7  86412416.415 7
G32  21603825.266 8  21603830.070 8 113528886.586 8  88464105.916 8
R01  23274572.875 6                 124415964.796 6
R02  19729446.625 8  19729447.504 8 105280175.420 8  81884566.846 8
R03  20074186.039 8  20074187.523 8 107458720.778 8  83578996.887 8
R11  22090213.898 7  22090213.199 7 118043421.774 7  91811570.795 7
R12  19881996.773 8  19881998.465 8 106206096.753 8  82604752.715 8
R13  21658763.945 7                 115656580.697 7
R18  22313981.641 7  22313982.684 7 119113589.922 7  92643862.978 7
R19  21852171.727 7  21852170.859 6 116894221.728 7  90917844.511 6
> 2026 01 01 00 21 30.0000000  0 18
G01  22257283.867 7  22257286.773 5 116962661.928 7  91139856.172 5
G02  23993251.609 6  23993251.883 4 126085349.771 6  98248334.665 4
G03  21828217.055 7  21828221.488 7 114708013.348 7  89382915.830 7
G10  24363659.898 6  24363664.598 4 128031896.040 6  99765141.555 4
G12  23931907.461 5  23931908.496 3 125763060.575 5  97997183.717 3
G25  21993545.453 7  21993550.727 7 115576868.663 7  90059934.899 7
G26  24589992.000 5  24589999.539 4 129221308.327 5 100691938.811 4
G28  20456882.344 8  20456884.328 6 107501667.134 8  83767551.388 6
G31  21084751.922 7  21084754.227 7 110801146.114 7  86338568.941 7
G32  21613246.977 8  21613251.047 8 113578396.670 8  88502685.179 8
R01  23292700.813 6                 124512857.021 6
R02  19735908.555 8  19735909.922 8 105314656.487 8  81911385.435 8
R03  20058312.555 8  20058314.281 8 107373747.879 8  83512906.845 8
R11  22106073.227 7  22106072.504 7 118128167.752 7  91877484.344 7
R12  19874221.523 8  19874222.656 8 106164560.311 8  82572446.587 8
R13  21632978.258 7                 115518884.480 7
R18  22330036.805 7  22330038.707 7 119199293.900 7  92710521.599 7
R19  21848059.008 6  21848059.285 7 116872225.830 6  90900736.664 7
> 2026 01 01 00 22 00.0000000  0 18
G01  22262587.305 7  22262590.070 5 116990531.900 7  91161573.039 5
G02  24006645.492 6  24006645.305 4 126155734.440 6  98303179.824 4
G03  21809392.828 7  21809397.023 7 114609090.703 7  89305833.262 7
G10  24382273.773 6  24382279.668 5 128129716.857 6  99841365.492 5
G12  23940284.055 4
G25  21990947.258 7  21990952.598 7 115563215.061 7  90049295.729 7
G26  24564824.367 5  24564831.367 4 129089046.124 5 100588877.378 4
G28  20452345.813 8  20452347.859 7 107477827.494 8  83748975.045 7
G31  21066804.344 8  21066807.188 7 110706831.979 8  86265077.428 7
G32  21622721.516 8  21622725.801 8 113628187.729 8  88541483.398 8
R01  23310851.508 7                 124609885.084 7
R02  19742456.102 8  19742457.625 8 105349597.390 8  81938561.703 8
R03  20042507.086 8  20042507.793 8 107289136.548 8  83447098.031 8
R11  22122027.242 7  22122026.816 7 118213421.162 7  91943792.540 7
R12  19866600.539 8  19866601.758 8 106123851.613 8  82540784.286 8
R13  21607262.031 7                 115381564.839 7
R18  22346181.055 7  22346182.230 7 119285469.685 7  92777547.161 7
R19  21844103.930 7  21844101.645 6 116851058.340 7  90884273.055 6
> 2026 01 01 00 22 30.0000000  0 18
G01  22267995.273 7  22267998.340 5 117018950.189 7  91183717.125 5
G02  24020079.211 6  24020079.191 3 126226330.712 6  98358189.899 3
G03  21790639.961 7  21790644.898 7 114510546.482 7  89229045.562 7
G10  24400915.578 6  24400921.086 5 128227676.791 6  99917697.869 5
G12  23948771.422 5  23948769.789 2 125851670.83915  98066207.97012
G25  21988478.063 7  21988482.363 7 115550236.250 7  90039182.376 7
G26  24539662.102 6  24539669.566 4 128956818.601 6 100485842.972 4
G28  20447914.391 8  20447916.645 7 107454541.761 8  83730830.322 7
G31  21048944.617 8  21048946.723 7 110612977.144 8  86191943.802 7
G32  21632250.000 8  21632254.500 8 113678259.392 8  88580500.263 8
R01  23329028.297 7                 124707047.929 7
R02  19749089.891 8  19749091.352 8 105384997.755 8  81966095.309 8
R03  20026769.063 8  20026769.836 8 107204888.434 8  83381571.737 8
R11  22138075.344 7  22138075.316 7 118299178.449 7  92010492.654 7
R12  19859134.711 8  19859136.383 8 106083971.896 8  82509766.734 8
R13  21581618.211 7                 115244626.476 7
R18  22362411.961 7  22362413.617 7 119372113.307 7  92844936.596 7
R19  21840299.406 6  21840299.957 6 116830719.572 6  90868454.042 6
> 2026 01 01 00 23 00.0000000  0 18
G01  22273506.211 7  22273509.535 5 117047914.552 7  91206286.752 5
G02  24033552.352 6  24033553.742 4 126297135.813 6  98413362.694 4
G03  21771960.672 7  21771964.648 6 114412382.984 7  89152554.516 6
G10  24419583.109 6  24419588.461 5 128325773.601 6  99994136.885 5
G12  23957353.727 5  23957356.129 2 125896786.767 5  98101363.237 2
G25  21986136.438 7  21986141.305 7 115537931.868 7  90029594.579 7
G26  24514507.148 5  24514514.809 4 128824628.108 5 100382837.448 4
G28  20443588.164 8  20443590.852 6 107431809.284 8  83713116.705 6
G31  21031172.055 7  21031174.410 7 110519582.873 7  86119169.071 7
G32  21641831.563 8  21641835.973 8 113728610.524 8  88619734.915 8
R01  23347228.250 6                 124804343.792 6
R02  19755810.133 8  19755811.395 8 105420856.828 8  81993985.686 8
R03  20011098.945 8  20011099.480 8 107121005.512 8  83316329.462 8
R11  22154216.578 7  22154217.008 7 118385435.417 7  92077581.426 7
R12  19851824.063 8  19851826.238 8 106044921.835 8  82479394.474 8
R13  21556046.523 7                 115108073.140 7
R18  22378729.281 7  22378731.309 7 119459219.983 7  92912686.184 7
R19  21836653.602 6  21836652.297 7 116811209.436 6  90853279.497 7
> 2026 01 01 00 23 30.0000000  0 18
G01  22279122.250 7  22279125.398 5 117077423.371 7  91229280.613 5
G02  24047066.586 6  24047066.625 4 126368147.176 6  98468696.190 4
G03  21753354.195 7  21753357.621 6 114314602.919 7  89076362.223 6
G10  24438275.133 6  24438281.090 4 128424005.446 6 100070681.134 4
G12  23966042.156 5  23966044.480 2 125942441.60315  98136938.46012
G25  21983923.414 7  21983928.102 7 115526302.447 7  90020532.689 7
G26  24489359.430 5  24489366.258 4 128692477.749 5 100279863.171 4
G28  20439368.148 8  20439370.301 6 107409629.947 8  83695834.112 6
G31  21013488.141 7  21013490.395 7 110426651.525 7  86046755.048 7
G32  21651466.289 8  21651470.531 8 113779240.400 8  88659186.745 8
R01  23365455.164 6                 124901771.974 6
R02  19762616.188 8  19762617.336 8 105457174.270 8  82022232.580 8
R03  19995497.406 8  19995497.914 8 107037489.775 8  83251372.787 8
R11  22170451.516 7  22170451.832 7 118472188.476 7  92145056.004 7
R12  19844669.055 8  19844671.469 8 106006702.281 8  82449668.170 8
R13  21530546.523 6                 114971908.887 6
R18  22395134.359 7  22395135.238 6 119546785.415 7  92980792.618 6
R19  21833161.180 5  21833159.672 6 116792528.019 5  90838749.521 6
> 2026 01 01 00 24 00.0000000  0 18
G01  22284840.438 7  22284843.820 5 117107471.681 7  91252694.854 5
G02  24060617.172 6  24060618.207 3 126439358.856 6  98524185.775 3
G03  21734818.508 6  21734823.945 6 114217205.642 6  89000468.250 6
G10  24456992.492 6  24456999.184 5 128522367.156 6 100147326.535 5
G12  23974831.391 5  23974833.063 3 125988629.386 5  98172928.940 3
G25  21981838.172 7  21981843.098 7 115515344.672 7  90011994.170 7
G26  24464220.258 5  24464226.496 4 128560367.358 5 100176920.044 4
G28  20435251.633 8  20435254.152 7 107388000.293 8  83678979.845 7
G31  20995891.602 7  20995893.883 7 110334181.562 7  85974700.545 7
G32  21661153.164 8  21661157.500 8 113830145.033 8  88698852.697 8
R01  23383705.461 6                 124999327.712 6
R02  19769507.750 8  19769508.543 8 105493946.268 8  82050833.024 8
R03  19979962.539 8  19979965.156 8 106954339.849 8  83186700.623 8
R11  22186778.070 7  22186777.746 7 118559430.133 7  92212910.576 7
R12  19837670.195 8  19837671.801 8 105969310.994 8  82420586.073 8
R13  21505120.953 7                 114836134.193 7
R18  22411622.898 7  22411623.191 6 119634802.040 7  93049249.919 6
R19  21829824.422 6  21829822.617 6 116774672.035 6  90824861.555 6
> 2026 01 01 00 24 30.0000000  0 18
G01  22290660.180 7  22290664.199 5 117138057.483 7  91276527.947 5
G02  24074204.984 6  24074206.266 4 126510768.054 6  98579829.316 4
G03  21716358.078 6  21716363.277 6 114120193.552 6  88924874.473 6
G10  24475735.156 6  24475740.871 5 128620856.684 6 100224071.560 5
G12  23983719.578 4  23983724.969 2 126035348.318 4  98209333.260 2
G25  21979880.867 7  21979886.059 7 115505058.448 7  90003978.951 7
G26  24439089.641 6  24439094.559 4 128428299.638 6 100074010.143 4
G28  20431240.328 8  20431242.598 6 107366919.851 8  83662553.525 6
G31  20978382.969 7  20978385.781 7 110242174.749 7  85903006.940 7
G32  21670891.336 8  21670896.355 8 113881323.507 8  88738732.010 8
R01  23401976.633 6                 125097009.846 6
R02  19776483.859 8  19776485.086 8 105531172.135 8  82079786.466 8
R03  19964499.328 8  19964500.734 8 106871557.841 8  83122314.606 8
R11  22203194.438 7  22203194.434 7 118647155.792 7  92281141.657 7
R12  19830825.672 8  19830827.523 8 105932748.533 8  82392148.603 8
R13  21479768.922 7                 114700753.357 7
R18  22428194.891 7  22428196.301 6 119723265.164 7  93118054.522 6
R19  21826638.773 5  21826638.758 6 116757641.573 5  90811615.588 6
> 2026 01 01 00 25 00.0000000  0 17
G01  22296583.633 7  22296586.602 5 117169183.857 7  91300782.232 5
G02  24087831.906 6  24087833.227 3 126582377.185 6  98635628.590 3
G03  21697972.023 7  21697977.016 6 114023574.330 7  88849586.790 6
G10  24494502.461 6  24494507.555 4 128719476.889 6 100300918.396 4
G25  21978051.539 7  21978057.043 7 115495448.667 7  89996490.804 7
G26  24413965.758 5  24413972.480 4 128296282.414 5  99971139.582 4
G28  20427334.273 7  20427336.707 6 107346393.187 7  83646558.720 6
G31  20960964.031 8  20960966.711 7 110150637.630 8  85831679.324 7
G32  21680683.461 8  21680688.168 7 113932779.846 8  88778827.854 7
R01  23420275.992 6                 125194821.955 6
R02  19783545.742 8  19783546.645 8 105568856.324 8  82109096.369 8
R03  19949105.109 8  19949106.230 8 106789150.553 8  83058220.071 8
R11  22219702.250 7  22219701.855 7 118735366.986 7  92349750.359 7
R12  19824136.922 8  19824138.758 8 105897020.821 8  82364360.390 8
R13  21454491.711 6                 114565775.274 6
R18  22444850.594 7  22444851.262 6 119812175.463 7  93187206.966 6
R19  21823611.906 6  21823609.953 6 116741441.263 6  90799015.426 6
> 2026 01 01 00 25 30.0000000  0 18
G01  22302608.109 7  22302612.148 5 117200845.702 7  91325453.797 5
G02  24101497.039 6  24101496.980 4 126654180.236 6  98691579.004 4
G03  21679661.094 7  21679665.414 6 113927347.281 7  88774604.689 6
G10  24513292.008 6  24513297.707 4 128818222.852 6 100377863.214 4
G12  24001804.789 5  24001809.961 2 126130374.94215  98283397.49512
G25  21976351.063 7  21976356.461 7 115486512.118 7  89989527.272 7
G26  24388853.703 5  24388860.531 4 128164315.388 5  99868308.205 4
G28  20423532.258 8  20423535.332 6 107326416.816 8  83630992.726 6
G31  20943634.234 8  20943636.828 7 110059569.086 8  85760716.848 7
G32  21690527.328 7  21690532.023 7 113984510.178 7  88819137.189 7
R01  23438596.070 6                 125292759.558 6
R02  19790692.625 8  19790693.848 8 105606994.937 8  82138759.729 8
R03  19933780.047 8  19933781.867 8 106707116.682 8  82994415.938 8
R11  22236298.953 7  22236299.047 7 118824056.628 7  92418731.186 7
R12  19817604.641 8  19817606.504 8 105862124.952 8  82337219.171 8
R13  21429290.672 7                 114431200.739 7
R18  22461587.648 7  22461590.531 6 119901525.191 7  93256701.160 6
R19  21820737.547 6  21820735.750 6 116726068.010 6  90787058.378 6
> 2026 01 01 00 26 00.0000000  0 19
G01  22308735.219 7  22308738.059 5 117233040.451 7  91350540.595 5
G02  24115196.328 6  24115196.605 3 126726174.180 6  98747678.132 3
G03  21661424.773 7  21661429.203 6 113831514.233 7  88699929.587 6
G10  24532107.156 6  24532112.184 4 128917091.762 6 100454903.839 4
G12  24010997.070 5
G25  21974778.609 7  21974783.656 7 115478248.053 7  89983087.744 7
G26  24363751.469 6  24363758.508 4 128032400.802 6  99765517.667 4
G28  20419835.977 7  20419838.441 6 107306989.658 7  83615854.693 6
G31  20926394.016 7  20926396.289 7 109968970.019 7  85690120.188 7
G32  21700423.344 8  21700427.770 7 114036512.860 8  88859658.729 7
R01  23456942.305 6                 125390820.645 6
R02  19797924.758 8  19797926.109 8 105645586.650 8  82168775.508 8
R03  19918525.039 8  19918527.320 8 106625457.256 8  82930903.058 8
R04  23621849.531 5                 126493839.84215
R11  22252985.945 7  22252985.605 7 118913220.191 7  92488080.604 7
R12  19811227.867 8  19811229.293 8 105828061.052 8  82310725.036 8
R13  21404163.477 7                 114297033.213 7
R18  22478407.750 7  22478410.047 6 119991309.260 7  93326533.205 6
R19  21818018.602 6  21818016.063 6 116711520.812 6  90775743.859 6
> 2026 01 01 00 26 30.0000000  0 19
G01  22314962.883 7  22314965.809 5 117265767.749 7  91376042.359 5
G02  24128932.359 6  24128933.605 3 126798357.456 6  98803924.843 3
G03  21643264.508 7  21643268.160 6 113736079.358 7  88625564.748 6
G10  24550944.156 6  24550948.980 4 129016083.054 6 100532039.885 4
G12  24020289.641 5  24020292.859 2 126227513.97815  98359090.16812
G25  21973334.383 7  21973339.234 6 115470657.876 7  89977173.331 6
G26  24338659.766 6  24338666.516 5 127900543.148 6  99662771.468 5
G28  20416243.750 8  20416246.203 6 107288112.853 8  83601145.479 6
G31  20909243.352 7  20909245.840 7 109878843.796 7  85619891.981 7
G32  21710371.609 8  21710375.574 7 114088788.634 8  88900393.093 7
R01  23475308.305 6                 125489005.584 6
R02  19805241.609 8  19805242.828 8 105684632.625 8  82199144.579 8
R03  19903341.867 8  19903343.047 8 106544175.894 8  82867684.228 8
R04  23597552.727 5  23597553.598 3 126363717.303 5  98283022.47313
R11  22269758.773 7  22269758.738 7 119002854.813 7  92557796.442 7
R12  19805006.914 8  19805008.742 8 105794831.240 8  82284879.640 8
R13  21379115.914 7                 114163277.595 7
R18  22495309.500 7  22495310.477 6 120081524.677 7  93396700.709 6
R19  21815452.688 6  21815451.840 6 116697800.955 6  90765072.893 6
> 2026 01 01 00 27 00.0000000  0 18
G01  22321291.641 7  22321294.902 5 117299027.528 7  91401959.053 5
G02  24142703.836 6  24142704.996 3 126870729.533 6  98860318.622 3
G03  21625179.867 7  21625184.000 6 113641047.062 7  88551513.604 6
G10  24569803.961 6  24569810.047 4 129115196.796 6 100609271.354 4
G12  24029682.336 5  24029683.422 2 126276870.02515  98397549.39412
G25  21972018.398 7  21972023.918 6 115463743.336 7  89971785.391 6
G26  24313579.680 6  24313585.477 4 127768747.255 6  99560073.362 4
G28  20412756.672 7  20412758.965 6 107269787.859 7  83586866.291 6
G31  20892183.555 7  20892186.207 7 109789194.054 7  85550035.053 7
G32  21720371.594 8  21720375.727 7 114141338.597 8  88941341.104 7
R01  23493700.250 6                 125587314.959 6
R02  19812644.000 8  19812645.727 8 105724133.807 8  82229867.701 8
R03  19888229.172 8  19888230.047 8 106463276.443 8  82804762.446 8
R11  22286620.766 7  22286620.332 7 119092959.000 7  92627877.467 7
R12  19798942.781 8  19798944.680 8 105762437.956 8  82259684.865 8
R13  21354146.852 7                 114029940.295 7
R18  22512289.070 7  22512291.258 6 120172168.868 7  93467201.745 6
R19  21813042.375 6  21813041.207 5 116684910.068 6  90755046.676 5
> 2026 01 01 00 27 30.0000000  0 18
G01  22327721.797 7  22327724.395 5 117332815.491 7  91428287.330 5
G02  24156511.445 6  24156512.016 3 126943285.628 6  98916855.826 3
G03  21607172.750 7  21607176.547 6 113546417.664 7  88477776.397 6
G10  24588688.133 6  24588694.316 4 129214428.776 6 100686594.914 4
G12  24039173.172 5  24039175.504 2 126326746.113 5  98436413.892 2
G25  21970830.477 7  21970835.867 7 115457502.057 7  89966922.054 7
G26  24288512.422 6  24288518.184 4 127637013.748 6  99457423.898 4
G28  20409373.906 8  20409376.594 7 107252012.041 8  83573014.997 7
G31  20875214.570 7  20875216.820 7 109700020.166 7  85480548.918 7
G32  21730422.813 7  21730427.168 7 114194159.625 7  88982500.327 7
R01  23512115.813 6                 125685745.505 6
R02  19820131.711 8  19820133.023 8 105764087.791 8  82260943.011 8
R03  19873187.961 8  19873188.711 8 106382758.866 8  82742137.653 8
R11  22303570.195 7  22303569.324 7 119183525.525 7  92698318.063 7
R12  19793035.453 8  19793036.543 8 105730879.548 8  82235139.452 8
R13  21329255.211 7                 113897022.801 7
R18  22529350.164 7  22529350.633 6 120263235.247 7  93538031.113 6
R19  21810787.703 6  21810786.012 6 116672845.673 6  90745663.299 6
> 2026 01 01 00 28 00.0000000  0 18
G01  22334251.719 7  22334255.652 5 117367130.821 7  91455026.521 5
G02  24170353.055 6  24170353.660 3 127016024.090 6  98973535.120 3
G03  21589242.758 7  21589246.441 6 113452194.740 7  88404355.907 6
G10  24607594.336 6  24607600.020 4 129313778.039 6 100764009.828 4
G12  24048763.734 5  24048765.297 2 126377140.807 5  98475682.396 2
G25  21969771.648 7  21969776.777 7 115451934.804 7  89962583.945 7
G26  24263455.703 5  24263462.809 4 127505346.502 5  99354826.067 4
G28  20406095.906 8  20406098.680 6 107234785.941 8  83559592.059 6
G31  20858336.242 7  20858338.664 7 109611324.986 7  85411435.813 7
G32  21740526.133 8  21740530.176 7 114247251.974 8  89023870.992 7
R01  23530549.898 6                 125784296.725 6
R02  19827704.141 8  19827705.172 8 105804494.575 8  82292370.509 8
R03  19858218.367 8  19858219.484 8 106302625.888 8  82679811.987 8
R11  22320601.805 7  22320603.070 7 119274552.002 7  92769116.425 7
R12  19787283.891 8  19787285.570 8 105700157.488 8  82211244.516 8
R13  21304444.844 7                 113764530.281 7
R18  22546489.000 7  22546488.555 6 120354720.135 7  93609186.027 6
R19  21808687.953 6  21808685.508 6 116661608.327 6  90736923.180 6
> 2026 01 01 00 28 30.0000000  0 18
G01  22340881.766 7  22340884.949 5 117401971.447 7  91482175.051 5
G02  24184227.781 6  24184229.316 3 127088941.993 6  99030354.260 3
G03  21571389.906 7  21571394.152 6 113358380.825 7  88331254.146 6
G10  24626521.719 6  24626528.254 5 129413242.423 6 100841514.498 5
G12  24058452.039 4  24058453.980 2 126428051.866 4  98515353.359 2
G25  21968840.734 7  21968845.824 7 115447041.358 7  89958770.865 7
G26  24238414.789 6  24238420.715 5 127373748.592 6  99252282.305 5
G28  20402922.453 7  20402924.918 7 107218109.076 7  83546597.112 7
G31  20841549.547 7  20841552.035 7 109523110.184 7  85342697.018 7
G32  21750680.445 8  21750684.871 7 114300614.700 8  89065452.337 7
R01  23549008.430 6                 125882967.369 6
R02  19835360.633 8  19835362.289 8 105845353.564 8  82324149.720 8
R03  19843319.883 8  19843322.355 8 106222879.646 8  82617787.154 8
R11  22337723.148 7  22337722.773 7 119366034.932 7  92840269.809 7
R12  19781689.961 8  19781690.883 8 105670272.184 8  82188000.414 8
R13  21279711.992 7                 113632466.616 7
R18  22563703.859 6  22563703.809 6 120446619.148 6  93680663.009 6
R19  21806741.336 6  21806739.816 6 116651197.711 6  90728826.003 6
> 2026 01 01 00 29 00.0000000  0 17
G01  22347611.406 7  22347614.508 5 117437334.806 7  91509730.908 5
G02  24198138.148 6  24198138.891 3 127162036.313 6  99087310.854 3
G03  21553616.117 7  21553620.148 6 113264977.922 7  88258472.656 6
G12  24068236.930 5                 126479476.96715
G25  21968037.094 7  21968042.523 6 115442820.974 7  89955482.272 6
G26  24213385.664 6  24213392.121 5 127242222.397 6  99149794.364 5
G28  20399853.219 7  20399855.684 6 107201980.456 7  83534029.359 6
G31  20824854.984 7  20824856.785 7 109435377.151 7  85274333.636 7
G32  21760886.094 8  21760890.664 7 114354246.523 8  89107243.357 7
R01  23567489.859 6                 125981755.796 6
R02  19843102.594 8  19843103.879 8 105886663.700 8  82356279.815 8
R03  19828496.047 8  19828497.301 8 106143521.954 8  82556064.501 8
R11  22354926.563 7  22354926.621 7 119457968.634 7  92911773.769 7
R12  19776251.164 8  19776252.953 8 105641223.459 8  82165406.968 8
R13  21255062.492 7                 113500835.520 7
R18  22580995.867 7  22580996.613 6 120538927.230 7  93752458.121 6
R19  21804946.367 5  21804948.625 7 116641612.780 5  90721371.040 7
> 2026 01 01 00 29 30.0000000  0 17
G01  22354440.359 7  22354443.297 5 117473220.989 7  91537694.131 5
G02  24212081.805 6  24212080.965 3 127235306.316 6  99144404.367 3
G03  21535921.727 7  21535925.617 6 113171990.789 7  88186015.132 6
G12  24078123.070 4                 126531415.13514
G25  21967362.563 7  21967367.684 6 115439275.460 7  89952719.524 6
G26  24188372.031 5  24188377.746 5 127110773.013 5  99047366.269 5
G28  20396888.445 7  20396891.207 6 107186401.747 7  83521890.112 6
G31  20808252.156 7  20808254.121 7 109348129.622 7  85206348.572 7
G32  21771143.586 8  21771148.137 7 114408148.652 8  89149244.989 7
R01  23585991.273 6                 126080662.885 6
R02  19850928.898 8  19850930.070 8 105928426.572 8  82388762.040 8
R03  19813744.641 8  19813746.105 8 106064556.283 8  82494646.756 8
R11  22372215.969 7  22372215.566 7 119550352.024 7  92983627.551 7
R12  19770970.391 8  19770972.016 8 105613013.926 8  82143466.222 8
R13  21230493.117 7                 113369642.683 7
R18  22598363.852 6  22598366.211 6 120631642.023 6  93824569.572 6
R19  21803312.047 7  21803310.961 7 116632855.180 7  90714559.599 7
> 2026 01 01 00 30 00.0000000  0 16
G01  22361368.250 7  22361371.492 5 117509627.964 7  91566063.205 5
G02  24226056.445 6  24226057.105 3 127308749.307 6  99201632.611 3
G03  21518306.531 7  21518310.969 7 113079421.933 7  88113883.550 7
G25  21966816.258 7  21966821.250 7 115436404.550 7  89950482.457 7
G26  24163371.344 5  24163379.270 4 126979403.396 5  98945000.356 4
G28  20394028.914 7  20394031.301 6 107171372.408 7  83510178.946 6
G31  20791741.742 7  20791743.973 7 109261368.855 7  85138742.796 7
G32  21781451.922 7  21781456.535 7 114462320.321 7  89191456.675 7
R01  23604517.219 6                 126179687.073 6
R02  19858839.578 8  19858841.039 8 105970641.425 8  82421595.791 8
R03  19799066.805 8  19799068.207 8 105985984.811 8  82433535.613 8
R11  22389586.023 7  22389587.660 7 119643180.557 7  93055827.508 7
R12  19765846.836 8  19765848.398 8 105585643.723 8  82122178.303 8
R13  21206008.625 7                 113238892.282 7
R18  22615807.758 6  22615809.703 6 120724759.053 6  93896993.946 6
R19  21801829.516 7  21801828.602 7 116624924.463 7  90708391.227 7
> 2026 01 01 00 30 30.0000000  0 17
G01  22368394.805 7  22368397.371 5 117546551.231 7  91594834.570 5
G02  24240063.148 6  24240065.313 3 127382360.467 6  99258991.933 3
G03  21500770.469 7  21500775.313 7 112987271.444 7  88042077.992 7
G12  24098178.289 5                 126636817.84315
G25  21966397.797 7  21966402.523 7 115434205.428 7  89948768.862 7
G26  24138388.664 6  24138395.609 4 126848114.014 6  98842696.964 4
G28  20391272.742 7  20391275.359 6 107156889.530 7  83498893.588 6
G31  20775324.477 7  20775326.852 7 109175094.411 7  85071515.965 7
G32  21791811.383 7  21791815.797 7 114516758.262 7  89233875.821 7
R01  23623062.922 6                 126278824.872 6
R02  19866835.188 8  19866835.902 8 106013305.151 8  82454778.683 8
R03  19784462.836 8  19784463.848 8 105907807.067 8  82372730.687 8
R11  22407041.219 7  22407040.988 7 119736448.009 7  93128368.840 7
R12  19760879.688 8  19760881.254 8 105559110.838 8  82101541.625 8
R13  21181604.633 7                 113108585.627 7
R18  22633326.602 6  22633326.980 6 120818271.275 6  93969725.600 6
R19  21800500.742 7  21800500.211 7 116617817.604 7  90702863.683 7
> 2026 01 01 00 31 00.0000000  0 17
G01  22375518.711 7  22375520.805 5 117583985.486 7  91624004.104 5
G02  24254102.945 6  24254104.148 3 127456133.833 6  99316477.668 3
G03  21483314.359 7  21483318.594 6 112895538.590 7  87970597.844 6
G12  24108352.336 6  24108354.434 3 126690274.775 6  98719679.13713
G25  21966106.703 7  21966111.375 7 115432674.520 7  89947575.955 7
G26  24113420.891 6  24113426.992 4 126716904.649 6  98740455.910 4
G28  20388619.992 7  20388622.578 6 107142949.250 7  83488031.043 6
G31  20758999.063 7  20759001.621 7 109089304.814 7  85004666.953 7
G32  21802220.172 8  21802224.520 7 114571458.318 8  89276499.226 7
R01  23641628.688 5                 126378071.784 5
R02  19874913.375 8  19874914.605 8 106056413.580 8  82488307.467 8
R03  19769932.273 8  19769932.727 8 105830021.691 8  82312230.968 8
R11  22424575.289 7  22424576.102 7 119830146.853 7  93201245.735 7
R12  19756068.609 8  19756070.492 8 105533412.046 8  82081553.691 8
R13  21157286.609 7                 112978723.368 7
R18  22650916.273 6  22650918.984 6 120912170.904 6  94042758.668 6
R19  21799324.695 7  21799324.129 6 116611530.677 7  90697973.829 6
> 2026 01 01 00 31 30.0000000  0 17
G01  22382738.422 7  22382741.180 5 117621928.693 7  91653570.214 5
G02  24268171.945 6  24268173.020 3 127530066.779 6  99374087.700 3
G03  21465937.844 7  21465942.711 6 112804226.061 7  87899445.219 6
G12  24118620.250 6  24118622.406 3 126744229.972 6  98761722.198 3
G25  21965942.695 7  21965947.285 7 115431811.477 7  89946903.477 7
G26  24088468.164 6  24088474.840 5 126585778.386 6  98638279.625 5
G28  20386070.266 7  20386073.023 6 107129551.155 7  83477590.968 6
G31  20742766.375 7  20742768.711 7 109004001.748 7  84938197.035 7
G32  21812679.281 8  21812683.539 7 114626419.871 8  89319326.407 7
R01  23660214.906 6                 126477426.279 6
R02  19883075.234 8  19883076.684 8 106099966.473 8  82522181.911 8
R03  19755474.227 8  19755475.625 8 105752630.465 8  82252037.760 8
R11  22442189.703 7  22442190.121 7 119924273.355 7  93274455.142 7
R12  19751414.133 8  19751415.895 8 105508547.518 8  82062214.620 8
R13  21133052.555 7                 112849309.829 7
R18  22668580.727 6  22668579.957 6 121006453.558 6  94116089.628 6
R19  21798302.695 7  21798302.715 7 116606063.237 7  90693721.378 7
> 2026 01 01 00 32 00.0000000  0 17
G01  22390055.922 7  22390058.836 5 117660381.793 7  91683533.652 5
G02  24282271.359 6  24282271.742 3 127604159.801 6  99431822.500 3
G03  21448643.016 7  21448647.176 7 112713339.409 7  87828624.470 7
G12  24128980.234 5  24128983.008 3 126798684.41115  98804154.25413
G25  21965905.883 7  21965911.215 7 115431619.032 7  89946753.509 7
G26  24063532.203 6  24063539.137 5 126454741.254 6  98536172.809 5
G28  20383624.523 7  20383627.168 6 107116697.751 7  83467575.330 6
G31  20726627.289 7  20726629.684 7 108919189.975 7  84872109.966 7
G32  21823188.492 8  21823192.633 7 114681645.103 8  89362359.042 7
R01  23678823.813 6                 126576890.528 6
R02  19891320.664 8  19891322.074 8 106143966.141 8  82556403.875 8
R03  19741092.094 8  19741092.957 8 105675638.762 8  82192155.352 8
R11  22459884.523 7  22459883.793 7 120018826.864 7  93347996.762 7
R12  19746915.836 8  19746917.879 8 105484520.616 8  82043527.039 8
R13  21108901.734 6                 112720351.627 6
R18  22686312.117 6  22686314.379 6 121101117.861 6  94189717.394 6
R19  21797434.508 7  21797433.828 7 116601417.563 7  90690108.042 7
> 2026 01 01 00 32 30.0000000  0 17
G01  22397469.984 7  22397473.043 5 117699342.810 7  91713892.877 5
G02  24296400.531 6  24296402.492 3 127678410.266 6  99489679.997 3
G03  21431429.719 7  21431433.906 7 112622881.423 7  87758137.710 7
G12  24139437.875 5
G25  21965996.125 7  21966001.789 7 115432096.829 7  89947125.820 7
G26  24038614.227 6  24038620.941 5 126323796.422 6  98434137.897 5
G28  20381282.063 7  20381284.762 6 107104388.597 7  83457983.788 6
G31  20710582.148 7  20710583.988 7 108834870.924 7  84806406.818 7
G32  21833747.500 8  21833751.680 7 114737133.327 8  89405596.611 7
R01  23697448.836 6                 126676463.321 6
R02  19899650.445 8  19899651.398 8 106188411.806 8  82590972.700 8
R03  19726784.141 8  19726785.453 8 105599049.102 8  82132585.603 8
R11  22477658.180 7  22477657.230 7 120113803.310 7  93421867.329 7
R12  19742575.422 8  19742576.645 8 105461331.718 8  82025491.241 8
R13  21084838.242 7                 112591853.052 7
R18  22704117.648 6  22704118.934 6 121196159.431 6  94263638.569 6
R19  21796720.188 7  21796719.293 7 116597593.010 7  90687133.399 7
> 2026 01 01 00 33 00.0000000  0 17
G01  22704771.938 7  22704775.047 5 119314226.669 7  92972243.921 5
G02  24610351.469 6  24610352.199 3 129328231.414 6 100775254.906 3
G03  21714091.164 7  21714095.125 7 114108275.900 7  88915587.948 7
G12  24449780.828 5  24449782.758 3 128484498.77015 100117775.74013
G25  22266006.898 7  22266012.320 7 117008662.742 7  91175618.731 7
G26  24313507.398 6  24313513.992 4 127768369.509 6  99559779.296 4
G28  20678835.445 7  20678838.004 6 108668041.848 7  84676414.895 6
G31  20994423.375 7  20994425.547 7 110326467.738 7  85968690.068 7
G32  22144147.969 8  22144152.641 7 116368300.266 8  90676635.774 7
R01  24015888.086 6                 128378701.001 6
R02  20207854.805 8  20207855.371 8 107833049.918 8  83870135.674 8
R03  20012344.438 8  20012346.023 8 107127676.239 8  83321517.837 8
R11  22795302.141 7  22795301.480 7 121811194.294 7  94742060.261 7
R12  20038183.117 8  20038185.070 8 107040417.401 8  83253669.000 8
R13  21360654.844 7                 114064695.644 7
R18  23021784.188 6  23021785.012 5 122891881.258 6  95582533.287 5
R19  22095950.492 7  22095949.660 7 118198274.978 7  91932108.249 7
> 2026 01 01 00 33 30.0000000  0 18
G01  22712377.734 7  22712381.918 5 119354197.791 7  93003390.235 5
G02  24624539.070 6  24624540.395 3 129402789.344 6 100833351.975 3
G03  21697041.758 7  21697046.125 7 114018683.319 7  88845775.567 7
G12  24460427.477 5  24460430.840 3 128540437.569 5 100161374.45813
G25  22266352.539 7  22266357.480 6 117010480.266 7  91177035.000 6
G26  24288626.555 6  24288633.297 5 127637618.845 6  99457895.656 5
G28  20676699.852 8  20676702.668 6 108656820.058 8  84667670.641 6
G31  20978566.727 7  20978569.070 7 110243140.227 7  85903759.550 7
G32  22154806.820 8  22154810.988 7 116424312.694 8  90720281.816 7
R01  24034554.477 5                 128478487.904 5
R02  20216350.680 8  20216351.797 8 107878386.665 8  83905397.576 8
R03  19998187.750 8  19998189.160 8 107051895.938 8  83262577.606 8
R04  23557526.258 5  23557526.012 5 126149548.22615  98116264.64515
R11  22813231.750 7  22813229.977 6 121907005.787 7  94816580.332 6
R12  20034156.594 8  20034158.000 8 107018905.178 8  83236937.293 8
R13  21336765.547 7                 113937128.936 7
R18  23039727.633 6  23039728.148 6 122987664.367 6  95657031.165 6
R19  22095541.992 6  22095541.379 7 118196091.276 6  91930409.861 7
> 2026 01 01 00 34 00.0000000  0 18
G01  22720079.586 7  22720082.793 5 119394668.220 7  93034925.631 5
G02  24638755.297 6  24638755.934 3 129477494.692 6 100891563.885 3
G03  21680075.648 7  21680079.711 7 113929524.764 7  88776301.385 7
G12  24471162.336 4
G25  22266825.984 7  22266831.160 7 117012964.385 7  91178970.694 7
G26  24263764.508 6  24263771.172 5 127506967.361 6  99356089.333 5
G28  20674667.758 8  20674670.063 6 108646138.524 8  84659347.381 6
G31  20962804.227 7  20962806.453 7 110160308.364 7  85839215.255 7
G32  22165514.867 8  22165518.820 7 116480583.472 8  90764129.158 7
R01  24053242.195 6                 128578377.280 6
R02  20224929.633 8  20224930.941 8 107924165.170 8  83941003.069 8
R03  19984107.641 8  19984108.965 8 106976521.500 8  83203953.059 8
R04  23533289.609 5  23533290.961 4 126019765.613 5  98015322.719 4
R11  22831237.609 7  22831237.578 7 122003225.758 7  94891418.124 7
R12  20030285.750 8  20030287.414 8 106998228.707 8  83220855.598 8
R13  21312964.789 7                 113810031.147 7
R18  23057737.680 6  23057739.770 6 123083808.923 6  95731810.299 6
R19  22095287.570 7  22095286.262 7 118194724.378 7  91929346.670 7
> 2026 01 01 00 34 30.0000000  0 18
G01  22727875.938 7  22727878.750 5 119435637.973 7  93066850.088 5
G02  24652998.531 6  24653000.363 3 129552346.694 6 100949890.098 3
G03  21663192.570 7  21663196.953 7 113840804.975 7  88707169.086 7
G12  24481996.117 5  24481997.098 2 128653779.54315 100249681.91412
G25  22267425.500 7  22267430.688 6 117016116.792 7  91181427.096 6
G26  24238922.000 6  24238928.680 5 127376420.239 6  99254364.335 5
G28  20672737.805 7  20672740.602 6 108635998.835 7  84651446.332 6
G31  20947136.820 7  20947139.152 7 110077975.707 7  85775059.939 7
G32  22176271.828 8  22176276.402 7 116537113.992 8  90808178.907 7
R01  24071949.094 6                 128678370.257 6
R02  20233591.203 8  20233592.582 8 107970387.023 8  83976953.391 8
R03  19970102.766 8  19970104.211 8 106901556.628 8  83145647.037 8
R04  23509059.648 5  23509060.004 4 125890017.415 5  97914407.596 4
R11  22849319.773 7  22849320.379 7 122099852.946 7  94966572.542 7
R12  20026571.828 8  20026573.582 8 106978390.173 8  83205425.648 8
R13  21289252.375 7                 113683408.481 7
R18  23075815.898 6  23075817.648 6 123180312.781 6  95806868.831 6
R19  22095184.109 7  22095182.848 7 118194175.231 7  91928919.532 7
> 2026 01 01 00 35 00.0000000  0 17
G01  22735767.273 7  22735770.305 5 119477105.126 7  93099162.153 5
G02  24667270.273 6  24667272.777 3 129627343.365 6 101008329.024 3
G03  21646393.969 7  21646398.301 7 113752526.765 7  88638380.862 7
G25  22268152.016 7  22268157.785 7 117019937.112 7  91184404.001 7
G26  24214099.758 6  24214106.395 4 127245980.702 6  99152723.147 4
G28  20670911.273 8  20670914.234 6 108626400.587 8  84643967.179 6
G31  20931564.938 7  20931567.219 7 109996144.199 7  85711295.148 7
G32  22187079.242 7  22187083.473 7 116593903.702 7  90852430.614 7
R01  24090673.375 6                 128778465.924 6
R02  20242335.867 8  20242337.484 8 108017051.938 8  84013248.329 8
R03  19956176.516 8  19956177.711 8 106827003.486 8  83087661.273 8
R04  23484837.688 5  23484836.313 4 125760305.988 5  97813520.977 4
R11  22867477.438 7  22867477.852 7 122196883.287 7  95042040.547 7
R12  20023014.227 8  20023016.750 8 106959389.848 8  83190647.627 8
R13  21265629.219 7                 113557265.300 7
R18  23093962.695 6  23093963.266 6 123277171.623 6  95882203.386 6
R19  22095233.281 7  22095233.715 7 118194443.297 7  91929128.036 7
> 2026 01 01 00 35 30.0000000  0 17
G01  22743751.438 7  22743754.324 5 119519066.392 7  93131859.230 5
G02  24681568.953 6  24681569.797 3 129702480.838 6 101066877.687 3
G03  21629679.297 7  21629683.609 7 113664691.537 7  88569937.825 7
G25  22269006.039 7  22269011.156 7 117024423.766 7  91187900.076 7
G26  24189299.539 6  24189305.316 5 127115650.863 6  99051167.438 5
G28  20669187.523 8  20669190.227 6 108617342.088 8  84636908.611 6
G31  20916088.414 7  20916090.637 7 109914814.347 7  85647921.259 7
G32  22197934.727 8  22197939.156 7 116650950.714 8  90896882.810 7
R01  24109416.398 5                 128878661.959 5
R02  20251164.109 8  20251165.293 8 108064157.950 8  84049886.323 8
R03  19942326.500 8  19942327.555 8 106752863.112 8  83029996.540 8
R04  23460625.219 6  23460623.379 5 125630631.111 6  97712662.710 5
R11  22885710.836 7  22885710.129 7 122294311.681 7  95117818.186 7
R12  20019613.992 8  20019616.355 8 106941226.414 8  83176520.518 8
R13  21242096.898 7                 113431604.530 7
R18  23112172.938 6  23112173.637 6 123374379.858 6  95957809.765 6
R19  22095436.773 7  22095436.137 7 118195526.847 7  91929970.841 7
> 2026 01 01 00 36 00.0000000  0 17
G01  22751831.188 7  22751833.949 5 119561522.373 7  93164941.792 5
G02  24695893.477 6  24695894.020 4 129777759.183 6 101125536.132 4
G03  21613050.500 7  21613054.504 7 113577304.644 7  88501844.162 7
G25  22269987.344 7  22269992.188 7 117029578.878 7  91191917.063 7
G26  24164519.930 6  24164526.379 5 126985436.421 6  98949701.664 5
G28  20667566.922 8  20667569.375 7 108608825.456 8  84630272.275 7
G31  20900707.867 7  20900710.625 7 109833990.256 7  85584941.455 7
G32  22208839.984 8  22208844.098 7 116708257.052 8  90941537.087 7
R01  24128179.227 6                 128978959.447 6
R02  20260074.992 8  20260076.328 8 108111707.196 8  84086869.062 8
R03  19928554.133 8  19928555.488 8 106679140.993 8  82972657.115 8
R04  23436408.391 5  23436414.387 6 125500997.402 5  97611836.555 6
R11  22904017.469 7  22904017.367 7 122392137.354 7  95193904.812 7
R12  20016371.211 8  20016373.266 8 106923902.534 8  83163046.399 8
R13  21218655.594 7                 113306432.623 7
R18  23130447.938 6  23130449.324 6 123471935.891 6  96033686.680 6
R19  22095792.055 7  22095791.102 7 118197427.482 7  91931449.102 7
> 2026 01 01 00 36 30.0000000  0 17
G01  22760002.867 7  22760005.852 5 119604467.201 7  93198405.274 5
G02  24710244.539 6  24710246.039 3 129853172.309 6 101184299.584 3
G03  21596506.211 7  21596510.496 7 113490365.075 7  88434099.014 7
G25  22271094.492 7  22271099.762 7 117035398.230 7  91196451.617 7
G26  24139762.352 6  24139770.195 4 126855336.974 6  98848325.488 4
G28  20666048.711 8  20666050.813 6 108600846.397 8  84624054.834 6
G31  20885423.523 8  20885425.949 7 109753670.428 8  85522354.602 7
G32  22219793.375 7  22219797.445 7 116765818.283 7  90986389.979 7
R01  24146959.141 5                 129079354.150 5
R02  20269068.633 8  20269069.129 8 108159695.387 8  84124193.193 8
R03  19914859.922 8  19914861.445 8 106605834.854 8  82915641.225 8
R04  23412213.094 6  23412213.652 5 125371402.895 6  97511040.813 5
R11  22922396.914 7  22922396.711 6 122490352.480 7  95270294.285 6
R12  20013285.203 8  20013286.457 8 106907414.380 8  83150222.292 8
R13  21195307.617 7                 113181749.915 7
R18  23148786.188 6  23148788.586 6 123569831.384 6  96109827.540 6
R19  22096300.438 7  22096298.398 7 118200140.343 7  91933559.110 7
> 2026 01 01 00 37 00.0000000  0 17
G01  22768267.352 7  22768271.070 5 119647899.674 7  93232248.759 5
G02  24724620.188 6  24724622.090 4 129928718.544 6 101243166.745 4
G03  21580048.297 7  21580052.680 7 113403876.335 7  88366705.185 7
G25  22272328.398 7  22272332.945 7 117041882.194 7  91201504.078 7
G26  24115028.172 6  24115034.816 4 126725356.520 6  98747042.036 4
G28  20664632.563 8  20664635.074 6 108593405.324 8  84618256.592 6
G31  20870235.539 7  20870238.066 7 109673857.129 7  85460162.429 7
G32  22230795.609 8  22230799.938 7 116823634.668 8  91031441.677 7
R01  24165760.391 6                 129179845.837 6
R02  20278142.922 8  20278144.539 8 108208122.735 8  84161858.911 8
R03  19901244.609 8  19901245.473 8 106532947.336 8  82858950.939 8
R04  23388019.094 6  23388019.578 5 125241850.312 6  97410277.612 5
R11  22940850.000 7  22940847.805 6 122588954.109 7  95346984.442 6
R12  20010354.625 8  20010357.016 8 106891762.896 8  83138048.911 8
R13  21172050.672 7                 113057561.278 7
R18  23167189.281 6  23167191.074 6 123668063.157 6  96186229.995 6
R19  22096958.055 7  22096957.383 7 118203665.673 7  91936301.027 7
> 2026 01 01 00 37 30.0000000  0 18
G01  22776625.109 7  22776628.367 5 119691816.743 7  93266469.823 5
G02  24739021.813 6  24739022.563 3 130004394.521 6 101302134.998 3
G03  21563675.836 7  21563680.297 7 113317840.054 7  88299663.938 7
G12  24548898.570 5  24548902.215 2 129005346.22715 100523652.21712
G25  22273688.000 7  22273693.699 7 117049029.245 7  91207073.186 7
G26  24090317.625 6  24090323.660 5 126595497.334 6  98645853.060 5
G28  20663318.430 8  20663320.879 6 108586500.595 8  84612876.290 6
G31  20855144.125 7  20855146.570 7 109594550.947 7  85398365.421 7
G32  22241845.508 8  22241850.230 7 116881704.467 8  91076690.858 7
R01  24184575.727 6                 129280431.911 6
R02  20287300.164 8  20287301.586 8 108256987.618 8  84199864.912 8
R03  19887706.930 8  19887708.121 8 106460480.352 8  82802587.735 8
R04  23363833.539 5  23363834.816 5 125112340.284 5  97309547.605 5
R11  22959372.148 7  22959371.750 6 122687937.803 7  95423971.757 6
R12  20007581.547 8  20007583.211 8 106876946.660 8  83126525.186 8
R13  21148886.555 7                 112933869.446 7
R18  23185651.906 6  23185654.105 6 123766625.647 6  96262889.652 6
R19  22097768.563 7  22097767.938 7 118208001.404 7  91939673.250 7
> 2026 01 01 00 38 00.0000000  0 18
G01  22785074.398 7  22785077.496 5 119736217.068 7  93301067.442 5
G02  24753445.781 6  24753447.070 3 130080198.385 6 101361202.899 3
G03  21547389.922 7  21547394.707 7 113232259.710 7  88232977.967 7
G12  24560363.633 5  24560366.320 2 129065601.385 5 100570604.222 2
G25  22275174.695 7  22275179.109 7 117056839.556 7  91213159.153 7
G26  24065630.086 6  24065636.465 4 126465763.396 6  98544761.700 4
G28  20662106.969 7  20662109.398 6 108580132.509 7  84607914.146 6
G31  20840149.563 7  20840151.902 7 109515754.558 7  85336965.647 7
G32  22252944.406 8  22252948.902 7 116940027.943 8  91122137.698 7
R01  24203411.672 6                 129381112.421 6
R02  20296539.797 8  20296540.750 8 108306290.506 8  84238211.598 8
R03  19874248.328 8  19874249.383 8 106388436.695 8  82746553.789 8
R04  23339659.086 4  23339658.969 5 124982875.542 4  97208852.763 5
R11  22977966.328 6  22977966.414 6 122787299.872 6  95501253.369 6
R12  20004964.250 8  20004965.797 8 106862966.692 8  83115651.878 8
R13  21125817.125 7                 112810679.711 7
R18  23204178.141 6  23204179.680 6 123865515.228 6  96339803.711 6
R19  22098730.930 7  22098729.652 7 118213147.479 7  91943675.712 7
> 2026 01 01 00 38 30.0000000  0 18
G01  22793614.930 7  22793617.742 5 119781099.145 7  93336040.487 5
G02  24767895.422 6  24767896.898 3 130156128.437 6 101420369.164 3
G03  21531192.242 7  21531196.754 7 113147138.674 7  88166649.883 7
G12  24571920.023 5  24571921.254 2 129126324.560 5 100617921.053 2
G25  22276787.219 7  22276792.375 7 117065313.220 7  91219762.011 7
G26  24040966.625 6  24040972.699 4 126336158.580 6  98443770.995 4
G28  20660997.336 8  20660999.785 6 108574301.081 8  84603370.187 6
G31  20825252.898 7  20825255.051 7 109437470.001 7  85275964.713 7
G32  22264091.523 8  22264095.684 7 116998605.053 8  91167782.184 7
R01  24222262.984 5                 129481886.988 5
R02  20305861.414 8  20305862.281 8 108356031.227 8  84276898.819 8
R03  19860870.203 8  19860870.699 8 106316818.818 8  82690850.991 8
R04  23315492.133 5  23315491.020 4 124853458.590 5  97108195.161 4
R11  22996631.156 7  22996631.051 7 122887037.126 7  95578826.793 7
R12  20002503.461 8  20002505.445 8 106849823.098 8  83105429.099 8
R13  21102842.563 7                 112687996.303 7
R18  23222764.398 6  23222766.543 6 123964728.373 6  96416969.478 6
R19  22099843.875 8  22099843.824 7 118219103.260 8  91948308.020 7
> 2026 01 01 00 39 00.0000000  0 19
G01  22802245.914 7  22802249.789 5 119826455.918 7  93371383.422 5
G02  24782366.813 6  24782368.227 3 130232177.376 6 101479628.046 3
G03  21515081.578 7  21515085.824 7 113062474.620 7  88100677.887 7
G12  24583562.805 5  24583564.637 2 129187508.49315 100665596.83812
G25  22278524.906 7  22278529.641 7 117074444.706 7  91226877.465 7
G26  24016327.469 6  24016334.043 4 126206681.336 6  98342879.635 4
G28  20659988.336 8  20659991.164 7 108569000.843 8  84599240.137 7
G31  20810452.523 7  20810454.527 7 109359694.052 7  85215360.083 7
G32  22275285.586 8  22275289.711 7 117057430.240 8  91213619.977 7
R01  24241133.383 5                 129582749.580 5
R02  20315263.320 8  20315264.773 8 108406204.110 8  84315922.157 8
R03  19847569.711 8  19847571.262 8 106245624.328 8  82635477.503 8
R04  23291331.094 6  23291329.844 5 124724085.825 6  97007572.090 5
R11  23015364.359 7  23015364.637 7 122987141.765 7  95656685.948 7
R12  20000198.289 8  20000200.422 8 106837510.704 8  83095852.797 8
R13  21079962.945 7                 112565818.568 7
R18  23241408.195 6  23241411.074 6 124064255.849 6  96494379.703 6
R19  22101108.453 7  22101107.301 7 118225862.813 7  91953565.429 7
R20  23580278.961 4  23580275.176 4 126094360.73714  98073370.82814
> 2026 01 01 00 39 30.0000000  0 19
G01  22810967.039 7  22810970.867 5 119872288.397 7  93407097.022 5
G02  24796861.375 6  24796862.047 3 130308345.836 6 101538980.078 3
G03  21499057.914 7  21499062.813 7 112978273.427 7  88035066.544 7
G04  24604808.875 5                 129299110.85115
G12  24595292.391 4                 129249154.059 4
G25  22280388.023 7  22280393.266 7 117084236.543 7  91234507.459 7
G26  23991714.727 6  23991721.262 5 126077337.913 6  98242092.592 5
G28  20659082.305 8  20659084.223 6 108564234.355 8  84595525.994 6
G31  20795750.203 7  20795751.898 7 109282431.478 7  85155155.505 7
G32  22286527.047 7  22286531.551 7 117116505.970 7  91259652.990 7
R01  24260017.523 5                 129683702.206 5
R02  20324746.867 8  20324748.641 8 108456811.876 8  84355283.752 8
R03  19834349.914 8  19834351.168 8 106174858.635 8  82580437.524 8
R04  23267182.781 6  23267181.855 6 124594762.731 6  96906987.487 6
R11  23034166.188 7  23034166.000 7 123087612.229 7  95734829.629 7
R12  19998050.047 8  19998051.531 8 106826032.471 8  83086925.292 8
R13  21057179.516 7                 112444153.382 7
R18  23260112.648 6  23260113.895 6 124164096.403 6  96572033.432 6
R19  22102522.609 7  22102520.848 7 118233428.157 7  91959449.577 7
> 2026 01 01 00 40 00.0000000  0 19
G01  22819779.664 7  22819782.332 5 119918593.380 7  93443178.823 5
G02  24811377.859 6  24811378.023 3 130384630.202 6 101598422.396 3
G03  21483123.992 7  21483128.684 7 112894536.620 7  87969817.112 7
G04  24582671.930 5                 129182779.913 5
G12  24607111.898 5                 129311258.24415
G25  22282377.453 7  22282381.859 6 117094686.959 7  91242650.646 6
G26  23967127.453 6  23967133.555 5 125948130.568 6  98141411.573 5
G28  20658275.695 8  20658278.227 6 108559999.915 8  84592226.431 6
G31  20781145.102 7  20781147.102 7 109205683.039 7  85095351.537 7
G32  22297816.344 8  22297820.523 7 117175830.581 8  91305879.947 7
R01  24278918.984 5                 129784742.631 5
R02  20334312.563 8  20334313.773 8 108507852.833 8  84394982.263 8
R03  19821210.609 8  19821212.289 8 106104522.206 8  82525731.399 8
R04  23243040.555 5  23243040.480 5 124465489.754 5  96806441.880 5
R11  23053035.070 7  23053035.039 7 123188443.954 7  95813254.270 7
R12  19996056.586 8  19996058.676 8 106815386.899 8  83078645.409 8
R13  21034491.125 7                 112323004.014 7
R18  23278873.195 7  23278875.992 7 124264244.758 7  96649926.511 7
R19  22104086.523 7  22104085.277 7 118241797.214 7  91965958.835 7
> 2026 01 01 00 40 30.0000000  0 18
G01  22828680.789 7  22828683.457 5 119965370.373 7  93479628.401 5
G02  24825915.289 6  24825917.523 3 130461029.661 6 101657954.428 3
G03  21467277.992 7  21467283.082 7 112811268.578 7  87904932.941 7
G04  24560544.281 4                 129066509.301 4
G12  24619016.703 5                 129373819.543 5
G25  22284491.367 7  22284495.766 7 117105797.013 7  91251307.846 7
G26  23942566.336 6  23942573.805 5 125819064.247 6  98040840.459 5
G28  20657571.430 8  20657574.086 6 108556298.586 8  84589342.282 6
G31  20766639.047 7  20766640.813 7 109129451.770 7  85035950.565 7
G32  22309152.789 7  22309157.355 7 117235405.154 7  91352301.672 7
R01  24297837.063 5                 129885871.992 5
R02  20343958.414 8  20343959.563 8 108559328.084 8  84435018.552 8
R03  19808152.359 8  19808153.402 8 106034619.947 8  82471362.997 8
R11  23071972.070 7  23071971.285 7 123289635.243 7  95891958.553 7
R12  19994220.180 8  19994221.914 8 106805575.487 8  83071014.313 8
R13  21011901.813 7                 112202375.779 7
R18  23297691.344 6  23297693.996 7 124364698.191 6  96728056.930 7
R19  22105801.469 7  22105800.316 7 118250970.471 7  91973093.574 7
> 2026 01 01 00 41 00.0000000  0 19
G01  22837670.828 7  22837674.660 5 120012616.405 7  93516443.465 5
G02  24840476.039 6  24840477.418 3 130537541.208 6 101717573.786 3
G03  21451522.336 7  21451526.652 7 112728471.180 7  87840415.492 7
G04  24538433.203 5                 128950299.421 5
G12  24631008.836 5  24631012.324 2 129436835.581 5 100859875.72212
G25  22286730.672 7  22286735.258 7 117117565.195 7  91260477.847 7
G26  23918033.695 6  23918040.414 5 125690141.520 6  97940381.228 5
G28  20656968.422 8  20656970.801 6 108553129.021 8  84586872.491 6
G31  20752230.992 7  20752233.195 7 109053738.688 7  84976953.362 7
G32  22320536.703 7  22320540.883 7 117295228.284 7  91398917.072 7
R01  24316773.031 5                 129987087.980 5
R02  20353686.242 8  20353687.680 8 108611236.221 8  84475391.539 8
R03  19795175.570 8  19795176.441 8 105965152.335 8  82417332.627 8
R11  23090974.922 7  23090974.066 6 123391181.129 7  95970938.645 6
R12  19992539.086 8  19992541.227 8 106796597.005 8  83064031.060 8
R13  20989410.805 7                 112082271.947 7
R18  23316565.992 6  23316568.215 6 124465451.516 6  96806420.623 6
R19  22107666.977 7  22107665.133 7 118260945.913 7  91980852.280 7
R20  23509035.297 5  23509032.199 5 125713600.15415  97777055.50815
> 2026 01 01 00 41 30.0000000  0 18
G01  22846750.516 7  22846753.551 5 120060328.384 7  93553621.610 5
G02  24855056.031 6  24855057.113 3 130614161.447 6 101777277.845 3
G03  21435856.414 7  21435861.035 7 112646146.170 7  87776266.147 7
G04  24516329.813 5                 128834150.670 5
G12  24643086.398 5  24643089.184 3 129500302.521 5 100909330.309 3
G25  22289095.219 7  22289100.059 7 117129989.928 7  91270159.465 7
G26  23893527.711 6  23893534.863 5 125561364.680 6  97840035.660 5
G28  20656466.063 8  20656468.453 6 108550489.645 8  84584815.842 6
G31  20737922.305 7  20737924.098 7 108978544.152 7  84918360.229 7
G32  22331967.508 7  22331972.195 7 117355298.402 7  91445724.938 7
R01  24335724.000 5                 130088388.745 5
R02  20363494.383 8  20363496.141 8 108663575.724 8  84516100.012 8
R03  19782280.148 8  19782280.699 8 105896121.505 8  82363641.988 8
R11  23110043.469 7  23110042.168 6 123493077.031 7  96050191.009 6
R12  19991014.930 8  19991016.332 8 106788450.105 8  83057694.578 8
R13  20967016.555 7                 111962695.580 7
R18  23335495.492 6  23335498.168 6 124566499.557 6  96885013.465 6
R19  22109680.680 7  22109679.473 7 118271721.329 7  91989233.146 7
> 2026 01 01 00 42 00.0000000  0 17
G01  22855917.945 7  22855921.238 4 120108504.486 7  93591161.396 4
G02  24869656.172 6  24869657.551 3 130690888.088 6 101837064.829 3
G03  21420280.898 7  21420285.621 7 112564296.518 7  87712487.219 7
G12  24655248.695 4  24655251.641 3 129564218.541 4 100959134.878 3
G25  22291584.109 7  22291588.523 7 117143070.744 7  91280352.298 7
G26  23869050.711 6  23869057.938 5 125432737.420 6  97739806.652 5
G28  20656064.742 8  20656067.078 6 108548380.162 8  84583172.096 6
G31  20723712.250 7  20723714.059 7 108903870.258 7  84860172.786 7
G32  22343446.172 7  22343449.770 7 117415615.283 7  91492725.074 7
R01  24354686.984 5                 130189773.572 5
R02  20373384.195 8  20373385.336 8 108716346.397 8  84557143.856 8
R03  19769466.047 8  19769467.586 8 105827529.389 8  82310292.565 8
R11  23129176.430 7  23129175.809 6 123595319.509 7  96129712.905 6
R12  19989644.906 8  19989646.477 8 106781134.832 8  83052004.917 8
R13  20944724.297 7                 111843650.999 7
R18  23354479.891 6  23354482.582 6 124667838.427 6  96963832.528 6
R19  22111845.609 7  22111843.281 7 118283295.651 7  91998235.406 7
> 2026 01 01 00 42 30.0000000  0 19
G01  22865173.313 7  22865176.563 5 120157141.828 7  93629060.612 5
G02  24884276.148 6  24884278.309 3 130767718.313 6 101896932.492 3
G03  21404796.391 7  21404800.770 7 112482924.305 7  87649080.288 7
G12  24667493.633 5  24667497.660 3 129628580.518 5 101009286.978 3
G25  22294197.891 7  22294202.801 6 117156806.268 7  91291055.308 6
G26  23844602.891 6  23844609.586 5 125304262.357 6  97639696.246 5
G28  20655763.898 8  20655766.203 6 108546799.261 8  84581940.232 6
G31  20709601.672 7  20709603.492 7 108829717.919 7  84802391.752 7
G32  22354970.766 7  22354974.793 7 117476177.668 7  91539916.538 7
R01  24373671.586 5                 130291240.980 5
R02  20383353.695 8  20383354.871 8 108769546.889 8  84598522.001 8
R03  19756735.172 8  19756735.684 8 105759378.035 8  82257285.944 8
R04  23122491.563 6  23122490.805 5 123820176.58516  96304351.28615
R11  23148373.711 7  23148374.055 6 123697904.353 7  96209501.077 6
R12  19988431.492 8  19988432.590 8 106774649.903 8  83046961.080 8
R13  20922530.664 7                 111725141.319 7
R18  23373518.328 6  23373520.215 7 124769463.183 6  97042873.953 7
R19  22114156.188 6  22114155.941 7 118295666.947 6  92007857.538 7
R20  23456799.461 5  23456799.848 5 125434039.95515  97559827.06515
> 2026 01 01 00 43 00.0000000  0 19
G01  22874516.047 7  22874519.547 5 120206237.815 7  93667317.226 5
G02  24898916.563 6  24898918.383 3 130844649.213 6 101956878.573 3
G03  21389402.711 7  21389407.695 7 112402031.667 7  87586047.080 7
G12  24679828.320 5  24679829.684 3 129693385.640 5 101059784.468 3
G25  22296936.063 7  22296940.559 7 117171195.313 7  91302267.550 7
G26  23820184.492 6  23820191.277 5 125175942.411 6  97539706.729 5
G28  20655563.297 7  20655565.531 6 108545745.898 7  84581119.426 6
G31  20695590.281 7  20695591.906 7 108756088.231 7  84745017.981 7
G32  22366541.703 7  22366545.918 7 117536984.516 7  91587298.502 7
R01  24392667.359 5                 130392789.37715
R02  20393403.352 8  20393405.082 8 108823175.966 8  84640233.506 8
R03  19744086.391 8  19744087.395 8 105691668.492 8  82204622.974 8
R04  23098415.828 6  23098413.328 5 123691247.015 6  96204072.760 5
R11  23167635.086 6  23167635.305 6 123800826.964 6  96289551.960 6
R12  19987372.531 8  19987373.918 8 106768994.299 8  83042562.285 8
R13  20900437.828 7                 111607170.422 7
R18  23392609.242 7  23392610.945 7 124871369.142 7  97122134.135 7
R19  22116619.203 7  22116617.621 7 118308833.538 7  92018098.183 7
R20  23439619.383 5  23439620.602 6 125342173.921 5  97488375.827 6
> 2026 01 01 00 43 30.0000000  0 18
G01  22883946.109 7  22883949.141 4 120255791.608 7  93705930.545 4
G02  24913574.516 6  24913576.023 3 130921679.799 6 102016902.408 3
G03  21374101.656 7  21374106.363 7 112321622.652 7  87523390.723 7
G12  24692245.297 6  24692246.605 4 129758633.266 6 101110626.737 4
G25  22299798.438 7  22299803.789 7 117186238.403 7  91313989.421 7
G26  23795795.961 6  23795803.109 5 125047782.273 6  97439841.734 5
G28  20655463.789 8  20655465.426 6 108545220.736 8  84580710.204 6
G31  20681678.992 7  20681680.965 7 108682984.191 7  84688053.814 7
G32  22378158.961 7  22378163.836 7 117598036.614 7  91634871.549 7
R01  24411680.336 5                 130494419.046 5
R02  20403533.953 8  20403535.695 8 108877234.523 8  84682279.021 8
R03  19731520.508 8  19731522.410 8 105624405.005 8  82152306.935 8
R04  23074349.992 6  23074350.191 5 123562381.586 6  96103844.154 5
R11  23186959.031 6  23186957.875 6 123904085.638 6  96369864.233 6
R12  19986469.352 8  19986470.586 8 106764168.749 8  83038809.083 8
R13  20878449.234 7                 111489743.188 7
R18  23411751.695 6  23411753.488 7 124973553.371 6  97201610.736 7
R19  22119228.625 7  22119227.477 7 118322795.531 7  92028957.528 7
> 2026 01 01 00 44 00.0000000  0 19
G01  22893461.891 6  22893465.875 4 120305800.761 6  93744898.697 4
G02  24928251.703 6  24928252.766 3 130998807.573 6 102077001.938 3
G03  21358893.555 7  21358897.324 7 112241699.803 7  87461113.176 7
G12  24704744.703 6  24704746.750 4 129824320.505 6 101161811.625 4
G25  22302785.266 7  22302790.234 6 117201934.528 7  91326220.182 6
G26  23771440.141 6  23771445.492 5 124919785.085 6  97340103.701 5
G28  20655463.945 8  20655465.598 6 108545222.987 8  84580711.957 6
G31  20667867.930 8  20667869.922 7 108610407.116 8  84631500.258 7
G32  22389823.391 7  22389828.219 7 117659333.163 7  91682635.074 7
R01  24430706.336 5                 130596128.990 5
R02  20413745.891 8  20413746.496 8 108931721.988 8  84724658.142 8
R03  19719039.852 8  19719040.242 8 105557589.862 8  82100339.604 8
R04  23050298.641 6  23050297.926 6 123433582.207 6  96003666.754 6
R11  23206343.711 6  23206343.457 6 124007676.103 6  96450434.617 6
R12  19985721.008 8  19985722.563 8 106760172.731 8  83035701.079 8
R13  20856560.820 7                 111372863.742 7
R18  23430945.578 6  23430946.855 6 125076011.518 6  97281300.354 6
R19  22121986.102 6  22121985.199 7 118337551.142 6  92040434.061 7
R20  23405617.508 5  23405612.535 5 125160311.10215  97346919.29215
> 2026 01 01 00 44 30.0000000  0 20
G01  22903064.430 7  22903067.219 4 120356259.790 7  93784217.424 4
G02  24942946.344 6  24942948.195 3 131076026.771 6 102137172.698 3
G03  21343776.195 7  21343781.168 7 112162262.360 7  87399213.858 7
G04  24383973.711 5                 128138630.17315
G12  24717325.641 6  24717327.793 4 129890441.655 6 101213334.557 4
G25  22305895.297 7  22305900.797 7 117218279.613 7  91338956.610 7
G26  23747113.125 6  23747119.688 5 124791950.877 6  97240492.641 5
G28  20655563.969 7  20655565.953 6 108545748.581 7  84581121.502 6
G31  20654156.508 7  20654158.773 7 108538355.397 7  84575356.073 7
G32  22401533.500 7  22401538.113 7 117720870.276 7  91730586.065 7
R01  24449748.352 5                 130697914.932 5
R02  20424035.609 8  20424037.035 8 108986634.226 8  84767367.658 8
R03  19706639.984 8  19706642.305 8 105491221.033 8  82048719.418 8
R04  23026255.008 6  23026255.938 6 123304847.223 6  95903539.598 6
R11  23225790.086 6  23225790.191 6 124111591.501 6  96531257.709 6
R12  19985127.328 8  19985128.879 8 106757002.060 8  83033234.994 8
R13  20834774.961 7                 111256532.401 7
R18  23450188.703 7  23450191.375 6 125178736.018 7  97361197.122 6
R19  22124893.141 7  22124891.813 7 118353095.666 7  92052524.303 7
R20  23388785.289 4  23388785.465 6 125070331.167 4  97276934.830 6
> 2026 01 01 00 45 00.0000000  0 20
G01  22912751.898 6  22912755.344 4 120407167.418 6  93823885.681 4
G02  24957658.070 6  24957659.293 3 131153335.950 6 102197413.618 3
G03  21328753.148 7  21328757.367 7 112083313.968 7  87337695.654 7
G04  24361959.586 5                 128022941.796 5
G12  24729991.086 6  24729993.621 3 129956995.436 6 101265194.632 3
G25  22309129.883 7  22309134.840 7 117235273.718 7  91352198.789 7
G26  23722818.477 6  23722825.422 5 124664284.025 6  97141012.022 5
G28  20655763.352 8  20655766.879 7 108546797.906 8  84581939.159 7
G31  20640546.195 7  20640548.266 7 108466831.210 7  84519622.953 7
G32  22413289.813 7  22413294.016 7 117782648.403 7  91778724.858 7
R01  24468806.758 5                 130799776.815 5
R02  20434406.250 8  20434407.711 8 109041971.450 8  84810407.690 8
R03  19694325.719 8  19694328.051 8 105425302.130 8  81997449.156 8
R04  23002229.148 6  23002229.180 6 123176180.359 6  95803465.413 6
R11  23245297.125 6  23245296.781 5 124215829.038 6  96612331.316 5
R12  19984688.852 8  19984690.281 8 106754657.202 8  83031411.230 8
R13  20813094.695 7                 111140754.223 7
R18  23469482.453 7  23469484.164 7 125281723.454 7  97441298.419 7
R19  22127946.172 7  22127944.898 7 118369428.540 7  92065227.623 7
R20  23372078.172 5  23372077.641 6 124980985.466 5  97207443.949 6
> 2026 01 01 00 45 30.0000000  0 19
G01  22922524.375 7  22922527.066 4 120458521.100 7  93863901.503 4
G02  24972386.211 6  24972386.961 3 131230732.128 6 102257722.297 3
G03  21313822.906 7  21313827.750 7 112004856.948 7  87276560.304 7
G04  24339956.539 5  24339961.168 2 127907323.008 5  99668069.14512
G12  24742737.008 6  24742741.383 3 130023978.818 6 101317389.448 3
G25  22312487.117 7  22312492.051 6 117252915.686 7  91365945.770 6
G26  23698557.617 6  23698564.313 5 124536787.534 6  97041664.129 5
G28  20656062.258 8  20656066.906 7 108548369.815 8  84583164.044 7
G31  20627036.258 7  20627038.094 7 108395835.903 7  84464301.948 7
G32  22425091.781 7  22425096.051 7 117844666.561 7  91827050.679 7
R02  20444856.391 8  20444857.059 8 109097732.829 8  84853777.663 8
R03  19682097.016 8  19682098.238 8 105359835.396 8  81946530.573 8
R04  22978213.180 5  22978215.285 6 123047582.954 5  95703445.155 6
R11  23264862.266 6  23264863.852 5 124320384.693 6  96693652.303 5
R12  19984403.953 8  19984405.363 8 106753137.171 8  83030228.979 8
R13  20791516.063 7                 111025532.111 7
R18  23488823.055 7  23488825.391 7 125384969.222 7  97521600.633 7
R19  22131147.148 7  22131145.102 6 118386547.940 7  92078542.657 6
R20  23355487.039 6  23355487.695 6 124892277.471 6  97138448.852 6
> 2026 01 01 00 46 00.0000000  0 19
G01  22932381.422 7  22932384.547 4 120510319.670 7  93904264.005 4
G02  24987131.266 6  24987131.191 3 131308214.419 6 102318098.136 3
G03  21298987.680 7  21298992.090 7 111926895.051 7  87215810.776 7
G04  24317967.992 5  24317973.273 2 127791776.165 5  99578032.582 2
G12  24755565.375 6  24755569.520 4 130091390.679 6 101369918.070 4
G25  22315967.266 7  22315972.078 7 117271205.632 7  91380197.679 7
G26  23674328.492 6  23674335.660 5 124409465.810 6  96942452.443 5
G28  20656461.172 8  20656464.648 7 108550464.777 8  84584796.505 7
G31  20613627.766 7  20613629.344 7 108325372.099 7  84409395.099 7
G32  22436939.211 7  22436943.219 7 117906925.346 7  91875564.005 7
R02  20455385.125 8  20455386.750 8 109153918.958 8  84897477.941 8
R03  19669951.836 8  19669953.605 8 105294823.528 8  81895965.802 8
R04  22954213.227 6  22954213.723 6 122919057.908 6  95603481.302 6
R11  23284487.180 6  23284488.543 5 124425256.097 6  96775218.931 5
R12  19984273.609 8  19984275.367 8 106752442.147 8  83029688.406 8
R13  20770043.805 7                 110910872.066 7
R18  23508213.813 7  23508214.629 6 125488470.409 7  97602101.530 6
R19  22134494.102 7  22134492.672 6 118404453.382 7  92092469.146 6
R20  23339018.758 6  23339020.035 6 124804212.087 6  97069953.623 6
> 2026 01 01 00 46 30.0000000  0 19
G01  22942322.641 7  22942325.324 4 120562561.898 7  93944972.222 4
G02  25001890.727 6  25001892.438 3 131385781.552 6 102378539.992 3
G03  21284246.555 7  21284250.973 7 111849431.889 7  87155449.872 7
G04  24295995.703 5  24295999.168 2 127676303.667 5  99488054.084 2
G12  24768474.641 5  24768478.992 3 130159230.333 5 101422780.091 3
G25  22319570.344 7  22319576.520 7 117290143.661 7  91394954.600 7
G26  23650133.891 6  23650141.305 5 124282323.353 6  96843380.449 5
G28  20656959.422 7  20656962.121 6 108553083.127 7  84586836.772 6
G31  20600320.516 7  20600322.359 7 108255442.242 7  84354904.305 7
G32  22448832.023 7  22448836.770 7 117969425.171 7  91924265.156 7
R02  20465993.664 8  20465994.965 8 109210530.097 8  84941508.825 8
R03  19657891.820 8  19657894.059 8 105230270.500 8  81845757.899 8
R04  22930226.063 6  22930227.027 6 122790608.487 6  95503576.245 6
R11  23304172.414 6  23304172.195 5 124530440.497 6  96857028.946 5
R12  19984298.734 8  19984299.773 8 106752572.647 8  83029789.927 8
R13  20748678.602 7                 110796778.393 7
R18  23527649.109 6  23527651.066 7 125592223.611 6  97682798.411 7
R19  22137986.289 7  22137986.742 6 118423144.269 7  92107006.488 6
R20  23322670.508 6  23322672.078 6 124716794.175 6  97001962.021 6
> 2026 01 01 00 47 00.0000000  0 19
G01  22952347.258 7  22952350.293 4 120615241.656 7  93986021.372 4
G02  25016666.398 6  25016668.113 3 131463427.094 6 102439043.023 3
G03  21269600.359 7  21269604.922 7 111772466.223 7  87095476.621 7
G04  24274035.961 6  24274039.473 2 127560903.007 6  99398131.566 2
G12  24781463.992 5  24781468.723 3 130227490.498 5 101475969.684 3
G25  22323297.047 7  22323301.656 6 117309725.014 7  91410212.791 6
G26  23625973.719 6  23625980.379 5 124155359.655 6  96744447.711 5
G28  20657556.375 7  20657559.008 7 108556220.202 7  84589281.258 7
G31  20587114.242 7  20587116.160 7 108186043.835 7  84300827.638 7
G32  22460770.359 7  22460775.020 7 118032161.573 7  91973150.653 7
R02  20476682.336 8  20476683.004 8 109267561.560 8  84985866.617 8
R03  19645919.844 8  19645920.590 8 105166174.571 8  81795905.503 8
R04  22906253.500 6  22906253.578 6 122662232.713 6  95403728.381 6
R11  23323912.250 6  23323911.563 4 124635930.456 6  96939076.656 4
R12  19984476.445 8  19984477.914 8 106753523.683 8  83030529.610 8
R13  20727418.484 7                 110683251.076 7
R18  23547132.313 7  23547133.770 7 125696220.868 7  97763685.132 7
R19  22141627.477 7  22141626.211 6 118442615.093 7  92122150.481 6
R20  23306447.102 6  23306445.313 5 124630022.616 6  96934473.245 5
> 2026 01 01 00 47 30.0000000  0 19
G01  22962454.945 6  22962458.277 4 120668358.904 6  94027411.436 4
G02  25031457.461 6  25031457.418 3 131541151.004 6 102499607.105 3
G03  21255050.555 7  21255054.320 7 111696002.959 7  87035894.854 7
G04  24252090.047 5  24252093.836 2 127445577.813 5  99308267.837 2
G12  24794535.000 5  24794537.527 3 130296171.282 5 101529487.125 3
G25  22327146.289 7  22327151.066 6 117329950.938 7  91425973.249 6
G26  23601848.195 6  23601854.547 5 124028580.267 6  96645658.612 5
G28  20658252.313 7  20658254.758 6 108559877.588 7  84592131.165 6
G31  20574010.109 8  20574012.043 7 108117180.679 8  84247168.047 7
G32  22472754.414 7  22472758.879 7 118095136.304 7  92022221.831 7
R02  20487448.328 8  20487449.770 8 109325015.193 8  85030552.756 8
R03  19634031.742 8  19634032.996 8 105102539.512 8  81746411.575 8
R04  22882292.758 6  22882292.602 5 122533935.168 6  95303941.425 5
R11  23343709.297 6  23343710.129 4 124741724.334 6  97021360.701 4
R12  19984807.984 8  19984809.680 8 106755296.843 8  83031908.740 8
R13  20706264.844 7                 110570296.398 7
R18  23566658.023 6  23566661.109 7 125800460.153 6  97844760.095 7
R19  22145412.875 7  22145411.906 6 118462866.600 7  92137901.636 6
R20  23290339.188 6  23290341.051 4 124543903.574 6  96867492.090 4
> 2026 01 01 00 48 00.0000000  0 19
G01  22972645.266 7  22972648.781 4 120721910.618 7  94069140.006 4
G02  25046261.688 6  25046262.949 3 131618950.324 6 102560229.906 3
G03  21240595.555 7  21240599.855 7 111620043.937 7  86976705.972 7
G04  24230158.055 5  24230163.809 2 127330328.944 5  99218463.605 2
G12  24807683.070 5  24807685.813 3 130365269.703 5 101583329.922 3
G25  22331117.000 7  22331122.363 7 117350819.698 7  91442234.623 7
G26  23577758.742 6  23577765.012 5 123901987.902 6  96547015.210 5
G28  20659047.078 7  20659049.434 6 108564053.750 7  84595385.312 6
G31  20561007.250 8  20561009.707 7 108048853.451 8  84193926.054 7
G32  22484782.836 7  22484787.949 7 118158348.039 7  92071477.723 7
R02  20498293.695 8  20498295.406 8 109382889.502 8  85075566.094 8
R03  19622231.375 8  19622231.719 8 105039367.614 8  81697277.871 8
R04  22858348.523 6  22858350.684 5 122405717.040 6  95204216.232 5
R11  23363564.477 6  23363564.305 5 124847818.158 6  97103878.100 5
R12  19985293.492 8  19985295.211 8 106757890.462 8  83033926.012 8
R13  20685219.891 7                 110457917.167 7
R18  23586231.500 6  23586232.164 6 125904936.638 6  97926019.520 6
R19  22149344.227 6  22149343.582 6 118483896.332 6  92154258.094 6
R20  23274357.500 6  23274359.531 4 124458440.246 6  96801041.36614
> 2026 01 01 00 48 30.0000000  0 19
G01  22982917.578 7  22982921.039 4 120775892.522 7  94111203.813 4
G02  25061080.266 6  25061081.629 3 131696820.663 6 102620908.081 3
G03  21226236.695 7  21226241.988 7 111544589.768 7  86917910.526 7
G04  24208243.063 6                 127215155.61916
G12  24820911.906 5  24820913.211 2 130434781.081 5 101637494.597 2
G25  22335210.172 7  22335215.402 7 117372328.352 7  91458994.612 7
G26  23553705.117 6  23553712.078 5 123775583.990 6  96448518.712 5
G28  20659940.211 8  20659942.395 6 108568745.969 8  84599041.596 6
G31  20548107.672 8  20548109.234 7 107981061.898 8  84141101.481 7
G32  22496856.305 7  22496861.074 7 118221794.264 7  92120916.308 7
R02  20509218.359 8  20509219.230 8 109441181.833 8  85120904.560 8
R03  19610516.992 8  19610517.684 8 104976658.860 8  81648504.394 8
R04  22834421.898 6  22834421.969 5 122277578.451 6  95104552.879 5
R11  23383473.516 6  23383474.949 5 124954206.123 6  97186624.200 5
R12  19985932.555 8  19985933.828 8 106761301.677 8  83036579.184 8
R13  20664283.453 7                 110346115.565 7
R18  23605846.438 6  23605848.375 6 126009644.033 6  98007458.569 6
R19  22153422.070 7  22153419.738 7 118505700.347 7  92171216.748 7
R20  23258498.680 6  23258499.531 5 124373633.409 6  96735080.604 5
> 2026 01 01 00 49 00.0000000  0 19
G01  22993272.109 7  22993274.430 4 120830302.003 7  94153600.779 4
G02  25075910.969 6  25075912.762 3 131774759.465 6 102681639.616 3
G03  21211975.875 7  21211979.949 7 111469642.742 7  86859510.259 7
G04  24186340.656 6                 127100059.003 6
G12  24834217.055 5  24834219.258 2 130504702.939 5 101691979.096 2
G25  22339424.523 7  22339429.914 7 117394475.468 7  91476252.113 7
G26  23529687.570 6  23529694.188 5 123649371.604 6  96350171.431 5
G28  20660931.023 8  20660933.316 6 108573953.157 8  84603099.153 6
G31  20535309.180 8  20535311.180 7 107913806.714 8  84088694.856 7
G32  22508974.602 7  22508978.793 7 118285474.047 7  92170536.897 7
R02  20520220.414 8  20520221.125 8 109499891.298 8  85166567.445 8
R03  19598888.031 8  19598889.457 8 104914414.820 8  81600092.369 8
R04  22810509.648 6  22810506.992 5 122149521.149 6  95004952.812 5
R11  23403438.086 6  23403438.711 5 125060884.234 6  97269596.045 5
R12  19986723.789 8  19986725.008 8 106765529.267 8  83039867.314 8
R13  20643456.523 7                 110234894.724 7
R18  23625504.102 7  23625506.133 6 126114577.826 7  98089073.713 6
R19  22157640.031 6  22157640.508 7 118528276.694 6  92188776.135 7
R20  23242761.203 6  23242763.023 5 124289486.494 6  96669633.037 5
> 2026 01 01 00 49 30.0000000  0 19
G01  23003706.602 6  23003709.926 4 120885136.537 6  94196328.985 4
G02  25090753.859 6  25090755.254 3 131852764.013 6 102742422.340 3
G03  21197810.859 7  21197814.570 7 111395205.220 7  86801506.997 7
G04  24164453.188 6  24164457.328 2 126985040.134 6  98949406.58512
G12  24847599.789 5  24847602.566 2 130575032.825 5 101746781.567 2
G25  22343760.477 7  22343765.746 7 117417259.806 7  91494006.141 7
G26  23505707.055 6  23505713.820 5 123523353.856 6  96251975.803 5
G28  20662019.789 7  20662021.770 6 108579674.324 7  84607557.194 6
G31  20522613.352 7  20522615.168 7 107847089.299 7  84036707.275 7
G32  22521136.953 7  22521140.859 7 118349386.659 7  92220338.913 7
R02  20531299.992 8  20531301.465 8 109559016.826 8  85212553.954 8
R03  19587347.547 8  19587349.211 8 104852638.134 8  81552043.848 8
R04  22786606.836 5  22786610.242 6 122021547.185 5  94905417.594 6
R11  23423454.609 6  23423455.055 6 125167848.477 6  97352790.430 6
R12  19987668.195 8  19987669.133 8 106770571.793 8  83043789.283 8
R13  20622736.773 7                 110124258.567 7
R18  23645203.305 7  23645205.020 7 126219733.693 7  98170861.520 7
R19  22162006.430 6  22162004.219 7 118551623.363 6  92206934.658 7
R20  23227150.609 6  23227151.492 6 124206002.710 6  96604701.217 6
> 2026 01 01 00 50 00.0000000  0 18
G01  23014221.523 7  23014224.859 4 120940393.989 7  94239386.729 4
G02  25105611.313 6  25105612.234 3 131930831.981 6 102803254.478 3
G03  21183742.578 7  21183746.793 7 111321279.978 7  86743902.893 7
G04  24142576.727 5
G25  22348217.281 7  22348222.473 7 117440680.457 7  91512255.993 7
G26  23481763.563 6  23481770.750 5 123397534.485 6  96153934.740 5
G28  20663206.094 8  20663208.160 6 108585908.820 8  84612415.242 6
G31  20510019.773 8  20510021.910 7 107780911.180 8  83985139.915 7
G32  22533343.367 7  22533347.883 7 118413531.661 7  92270322.008 7
R02  20542458.266 8  20542459.578 8 109618557.961 8  85258863.707 8
R03  19575895.813 8  19575896.707 8 104791330.852 8  81504360.386 8
R04  22762727.797 5  22762727.641 6 121893658.805 5  94805948.850 6
R11  23443525.438 6  23443525.652 5 125275095.912 6  97436205.054 5
R12  19988764.422 8  19988765.668 8 106776428.520 8  83048344.512 8
R13  20602128.703 7                 110014210.486 7
R18  23664943.422 6  23664946.078 6 126325107.558 6  98252818.935 6
R19  22166513.531 7  22166512.641 7 118575738.739 7  92225691.022 7
R20  23211663.250 6  23211663.578 6 124123185.626 6  96540288.030 6
> 2026 01 01 00 50 30.0000000  0 17
G01  23024816.867 7  23024819.793 4 120996070.554 7  94282771.039 4
G02  25120478.133 6  25120479.273 3 132008959.808 6 102864133.271 3
G03  21169772.992 7  21169777.621 7 111247868.119 7  86686698.825 7
G04  24120724.039 5  24120727.117 2 126755240.95015  98770342.39512
G25  22352794.188 7  22352799.102 6 117464734.853 7  91530999.684 6
G26  23457859.734 6  23457866.402 5 123271915.223 6  96056049.664 5
G28  20664489.875 7  20664492.168 6 108592654.464 7  84617671.591 6
G31  20497528.977 8  20497531.055 7 107715272.296 8  83933992.753 7
G32  22545593.578 7  22545598.078 7 118477907.096 7  92320484.646 7
R02  20553693.688 8  20553695.250 8 109678512.588 8  85305495.077 8
R03  19564531.078 8  19564531.918 8 104730493.887 8  81457042.763 8
R11  23463646.805 6  23463647.805 5 125382621.610 6  97519836.128 5
R12  19990012.102 8  19990014.008 8 106783096.837 8  83053530.992 8
R13  20581630.289 7                 109904753.149 7
R18  23684723.750 6  23684725.723 6 126430693.788 6  98334941.533 6
R19  22171164.219 7  22171163.891 6 118600619.412 7  92245042.594 6
R20  23196303.945 6  23196301.410 6 124041037.084 6  96476394.774 6
> 2026 01 01 00 51 00.0000000  0 17
G01  23035490.453 7  23035493.891 4 121052161.909 7  94326478.576 4
G02  25135354.578 6  25135356.445 3 132087143.336 6 102925055.465 3
G03  21155900.727 7  21155905.637 7 111174970.172 7  86629895.242 7
G04  24098878.883 4
G25  22357492.016 7  22357496.820 6 117489419.867 7  91550234.778 6
G26  23433993.516 6  23433999.891 5 123146497.688 6  95958321.736 5
G28  20665869.727 7  20665872.773 6 108599908.432 7  84623324.034 6
G31  20485141.125 8  20485143.035 7 107650171.950 8  83883265.208 7
G32  22557886.852 7  22557891.469 7 118542510.459 7  92370824.885 7
R02  20565006.023 8  20565007.438 8 109738878.018 8  85352445.951 8
R03  19553253.500 8  19553254.984 8 104670127.585 8  81410091.194 8
R11  23483818.891 6  23483820.461 5 125490419.749 6  97603679.092 5
R12  19991411.945 8  19991413.617 8 106790573.899 8  83059346.479 8
R13  20561243.922 7                 109795888.409 7
R18  23704542.117 6  23704544.309 6 126536486.296 6  98417224.538 6
R19  22175958.453 6  22175957.301 6 118626261.372 6  92264986.321 6
R20  23181060.688 5  23181062.594 6 123959558.495 5  96413022.406 6
> 2026 01 01 00 51 30.0000000  0 18
G01  23046243.461 7  23046246.098 4 121108668.933 7  94370509.984 4
G02  25150243.242 5  25150245.641 3 132165383.674 5 102986021.922 3
G03  21142127.703 7  21142132.145 7 111102591.940 7  86573496.629 7
G04  24077053.898 4                 126525762.64614
G25  22362309.531 7  22362314.773 6 117514737.622 7  91569962.863 6
G26  23410166.797 6  23410172.926 5 123021288.454 6  95860756.123 5
G28  20667347.844 7  20667350.105 6 108607673.105 7  84629374.421 6
G31  20472856.133 8  20472858.086 7 107585614.736 8  83832960.902 7
G32  22570224.625 7  22570229.039 7 118607344.315 7  92421344.758 7
R02  20576396.469 8  20576397.371 8 109799656.872 8  85399718.369 8
R03  19542066.578 8  19542066.469 8 104610236.815 8  81363509.474 8
R04  22691182.898 5  22691178.551 6 121510452.95015  94507956.55016
R11  23504043.516 6  23504043.293 5 125598489.898 6  97687733.619 5
R12  19992962.977 8  19992965.066 8 106798861.683 8  83065792.548 8
R13  20540968.922 7                 109687623.048 7
R18  23724399.578 7  23724401.301 6 126642484.032 7  98499667.183 6
R19  22180895.609 7  22180893.965 7 118652665.861 7  92285523.162 7
R20  23165952.500 6  23165954.715 6 123878756.539 6  96350176.498 6
> 2026 01 01 00 52 00.0000000  0 18
G01  23057073.969 7  23057077.824 4 121165584.712 7  94414859.931 4
G02  25165140.344 5  25165143.574 2 132243673.50715 103047026.97412
G03  21128453.094 7  21128457.906 7 111030731.405 7  86517501.397 7
G04  24055244.141 5                 126411147.58915
G25  22367247.234 7  22367252.125 6 117540682.273 7  91590179.497 6
G26  23386380.352 6  23386386.289 5 122896286.296 6  95763351.888 5
G28  20668921.500 7  20668923.488 6 108615943.041 7  84635818.533 6
G31  20460674.039 8  20460675.863 7 107521597.116 8  83783077.055 7
G32  22582605.047 7  22582609.680 7 118672403.601 7  92472040.259 7
R02  20587862.570 8  20587863.582 8 109860843.734 8  85447308.122 8
R03  19530966.375 8  19530966.887 8 104550819.346 8  81317295.887 8
R04  22667360.070 5  22667362.074 6 121382918.474 5  94408763.139 6
R11  23524317.195 6  23524316.023 5 125706823.661 6  97771993.240 5
R12  19994666.086 8  19994667.078 8 106807954.121 8  83072864.440 8
R13  20520806.938 7                 109579956.357 7
R18  23744292.352 6  23744294.105 6 126748678.416 6  98582262.775 6
R19  22185971.180 7  22185970.480 6 118679826.526 7  92306648.132 6
R20  23150970.047 6  23150969.801 6 123798629.717 6  96287855.731 6
> 2026 01 01 00 52 30.0000000  0 18
G01  23067982.977 7  23067985.336 4 121222908.462 7  94459527.800 4
G02  25180048.164 5  25180051.391 2 132322012.08215 103108069.94212
G03  21114878.211 8  21114882.754 7 110959392.687 8  86461912.803 7
G04  24033450.102 5                 126296614.009 5
G25  22372303.461 7  22372308.527 6 117567254.322 7  91610884.973 6
G26  23362633.203 6  23362639.895 6 122771496.363 6  95666113.018 6
G28  20670591.203 7  20670593.434 6 108624719.087 7  84642657.004 6
G31  20448595.352 8  20448597.328 7 107458122.459 8  83733616.290 7
G32  22595028.305 7  22595032.996 7 118737689.416 7  92522912.289 7
R02  20599405.445 8  20599406.727 8 109922439.432 8  85495215.880 8
R03  19519955.570 8  19519956.648 8 104491879.640 8  81271453.906 8
R04  22643565.594 6  22643562.680 6 121255477.229 6  94309642.204 6
R11  23544638.930 6  23544639.070 5 125815419.507 6  97856456.665 5
R12  19996518.625 8  19996519.957 8 106817851.928 8  83080562.749 8
R13  20500756.992 7                 109472893.136 7
R18  23764223.414 6  23764225.137 6 126855066.809 6  98665009.284 6
R19  22191190.563 7  22191189.539 6 118707742.893 7  92328360.859 6
R20  23136111.211 6  23136112.996 6 123719183.085 6  96226063.966 6
> 2026 01 01 00 53 00.0000000  0 18
G01  23078967.578 7  23078971.227 4 121280637.237 7  94504511.215 4
G02  25194964.953 5  25194967.098 2 132400396.625 5 103169148.732 2
G03  21101402.422 7  21101406.406 7 110888577.687 7  86406732.279 7
G04  24011670.242 5                 126182164.638 5
G25  22377478.188 7  22377483.820 6 117594451.907 7  91632077.894 6
G26  23338927.297 6  23338933.785 6 122646921.362 6  95569041.606 6
G28  20672357.359 7  20672359.480 6 108633999.737 7  84649888.680 6
G31  20436619.641 8  20436621.891 7 107395191.308 8  83684579.031 7
G32  22607494.891 7  22607499.391 7 118803200.512 7  92573959.866 7
R02  20611024.859 8  20611026.344 8 109984442.779 8  85543440.675 8
R03  19509034.406 8  19509035.492 8 104433418.771 8  81225984.327 8
R04  22619780.656 5  22619782.676 6 121128130.657 5  94210594.911 6
R11  23565008.172 6  23565009.188 5 125924273.015 6  97941120.417 5
R12  19998521.789 8  19998523.258 8 106828553.400 8  83088886.109 8
R13  20480821.406 7                 109366436.690 7
R18  23784188.367 6  23784190.957 6 126961644.460 6  98747902.948 6
R19  22196550.023 7  22196548.711 6 118736412.286 7  92350659.335 6
R20  23121382.102 6  23121383.074 6 123640419.157 6  96164803.295 6
> 2026 01 01 00 53 30.0000000  0 17
G01  23090030.180 7  23090033.219 4 121338768.524 7  94549808.325 4
G02  25209889.680 5  25209891.363 2 132478825.05815 103230261.77512
G03  21088026.492 7  21088031.363 7 110818288.891 7  86351961.783 7
G25  22382773.242 7  22382778.168 6 117622273.775 7  91653757.278 6
G26  23315262.781 6  23315269.531 6 122522564.760 6  95472140.405 6
G28  20674219.430 7  20674221.625 6 108643784.130 7  84657512.875 6
G31  20424747.609 7  20424749.906 7 107332804.891 7  83635966.240 7
G32  22620004.172 7  22620008.953 7 118868936.376 7  92625182.595 7
R02  20622720.523 8  20622721.914 8 110046852.958 8  85591981.896 8
R03  19498203.719 8  19498204.617 8 104375438.723 8  81180888.725 8
R04  22596019.086 6  22596018.207 5 121000880.920 6  94111622.929 5
R11  23585427.063 6  23585427.320 5 126033380.974 6  98025982.074 5
R12  20000674.945 8  20000676.574 8 106840057.173 8  83097833.491 8
R13  20460999.320 7                 109260590.732 7
R18  23804188.859 6  23804190.535 6 127068407.399 6  98830940.715 6
R19  22202050.625 6  22202048.363 6 118765832.684 6  92373541.855 6
R20  23106780.984 6  23106781.922 6 123562341.160 6  96104076.108 6
> 2026 01 01 00 54 00.0000000  0 17
G01  23101167.484 7  23101170.563 4 121397296.130 7  94595414.243 4
G02  25224820.430 5  25224823.539 2 132557291.108 5 103291404.178 2
G03  21074751.258 8  21074755.648 7 110748524.930 8  86297600.258 7
G25  22388185.445 7  22388189.871 6 117650714.756 7  91675919.059 6
G26  23291640.469 6  23291646.648 5 122398426.033 6  95375408.947 5
G28  20676176.086 7  20676178.586 6 108654067.442 7  84665525.848 6
G31  20412979.617 7  20412981.410 7 107270960.489 7  83587775.815 7
G32  22632554.594 7  22632559.512 7 118934892.523 7  92676576.966 7
R02  20634491.438 8  20634492.602 7 110109665.222 8  85640835.861 7
R03  19487461.898 8  19487462.797 8 104317937.960 8  81136165.926 8
R04  22572276.797 6  22572275.004 5 120873726.491 6  94012725.145 5
R11  23605891.773 6  23605890.043 5 126142735.900 6  98111035.788 5
R12  20002978.211 8  20002979.590 8 106852357.636 8  83107400.531 8
R13  20441292.594 7                 109155354.918 7
R18  23824222.625 6  23824224.555 6 127175347.271 6  98914116.186 6
R19  22207688.945 6  22207686.836 6 118795997.897 6  92397003.614 6
R20  23092308.469 6  23092309.867 7 123484948.558 6  96043882.013 7
> 2026 01 01 00 54 30.0000000  0 17
G01  23112380.875 7  23112383.781 4 121456223.102 7  94641331.343 4
G02  25239761.188 5  25239762.828 2 132635797.859 5 103352578.244 2
G03  21061577.078 7  21061581.602 7 110679293.769 7  86243653.902 7
G25  22393716.164 7  22393721.445 6 117679779.096 7  91698566.600 6
G26  23268061.570 6  23268067.352 6 122274514.181 6  95278854.289 6
G28  20678229.016 8  20678231.262 6 108664854.348 8  84673931.229 6
G31  20401315.281 8  20401317.059 7 107209664.905 8  83540013.032 7
G32  22645148.703 7  22645153.664 7 119001073.939 7  92728146.881 7
R02  20646338.828 8  20646340.078 7 110172884.496 8  85690006.394 7
R03  19476810.953 8  19476812.520 8 104260924.730 8  81091822.289 8
R04  22548547.398 5  22548547.984 5 120746675.357 5  93913907.601 5
R11  23626402.234 7  23626402.781 5 126252339.817 7  98196283.213 5
R12  20005431.125 8  20005432.301 8 106865459.251 8  83117590.678 8
R13  20421700.742 7                 109050738.405 7
R18  23844289.203 6  23844291.516 6 127282465.834 6  98997430.557 6
R19  22213468.414 6  22213467.031 6 118826911.405 6  92421047.475 6
R20  23077966.266 6  23077967.039 7 123408249.880 6  95984227.452 7
> 2026 01 01 00 55 00.0000000  0 16
G01  23123669.625 7  23123672.840 4 121515546.924 7  94687557.678 4
G02  25254707.320 5  25254709.660 2 132714342.970 5 103413782.174 2
G03  21048504.742 7  21048508.840 7 110610597.708 7  86190124.511 7
G25  22399365.148 7  22399369.934 6 117709465.279 7  91721698.686 6
G26  23244525.070 6  23244531.152 6 122150832.358 6  95182478.888 6
G28  20680376.883 7  20680379.602 6 108676143.771 7  84682728.188 6
G31  20389755.438 8  20389757.734 7 107148919.340 8  83492678.837 7
G32  22657785.047 7  22657790.332 7 119067479.871 7  92779891.730 7
R02  20658262.414 8  20658263.902 8 110236509.870 8  85739492.771 8
R03  19466251.734 8  19466253.180 8 104204400.207 8  81047858.782 8
R11  23646959.391 6  23646959.551 5 126362188.739 6  98281721.189 5
R12  20008033.883 8  20008034.609 8 106879360.546 8  83128402.792 8
R13  20402226.547 7                 108946744.539 7
R18  23864389.203 6  23864390.648 6 127389758.542 6  99080880.368 6
R19  22219387.805 6  22219385.234 6 118858571.063 6  92445671.646 6
R20  23063754.313 6  23063753.824 6 123332248.152 6  95925115.040 6
> 2026 01 01 00 55 30.0000000  0 16
G01  23135034.336 7  23135036.703 4 121575263.741 7  94734090.236 4
G02  25269661.555 6  25269662.340 2 132792922.740 6 103475013.159 2
G03  21035533.719 7  21035538.453 7 110542437.852 7  86137012.941 7
G25  22405132.477 7  22405137.023 6 117739770.626 7  91745313.244 6
G26  23221033.156 6  23221039.094 6 122027382.759 6  95086284.417 6
G28  20682620.547 7  20682623.301 6 108687933.428 7  84691914.934 6
G31  20378301.125 8  20378302.668 7 107088723.568 8  83445773.058 7
G32  22670464.500 7  22670469.094 7 119134108.433 7  92831810.063 7
R02  20670261.633 8  20670262.996 8 110300539.349 8  85789293.451 8
R03  19455784.922 8  19455785.582 8 104148366.230 8  81004276.812 8
R11  23667561.258 6  23667561.699 5 126472278.292 6  98367346.354 5
R12  20010784.508 8  20010786.148 8 106894058.596 8  83139834.606 8
R13  20382868.297 7                 108843375.659 7
R18  23884519.594 6  23884522.465 5 127497220.182 6  99164461.586 5
R19  22225444.648 6  22225442.961 6 118890972.916 6  92470873.055 6
R20  23049670.133 6  23049670.957 6 123256945.257 6  95866546.026 6
> 2026 01 01 00 56 00.0000000  0 16
G01  23146471.711 7  23146474.746 4 121635370.692 7  94780926.788 4
G02  25284620.961 5  25284621.773 2 132871534.394 5 103536268.951 2
G03  21022666.445 7  21022670.539 7 110474816.085 7  86084320.660 7
G25  22411016.484 7  22411021.105 6 117770693.307 7  91769408.837 6
G26  23197585.492 6  23197592.219 6 121904168.179 6  94990273.098 6
G28  20684959.242 7  20684961.609 6 108700221.848 7  84701490.330 6
G31  20366950.500 8  20366952.742 7 107029078.201 8  83399296.143 7
G32  22683186.133 7  22683190.441 7 119200958.535 7  92883901.026 7
R02  20682335.898 8  20682337.137 7 110364971.471 8  85839407.315 7
R03  19445407.766 8  19445409.711 8 104092823.582 8  80961076.961 8
R11  23688208.172 6  23688207.723 5 126582604.418 6  98453155.515 5
R12  20013684.555 8  20013686.668 8 106909551.399 8  83151884.581 8
R13  20363627.844 7                 108740634.625 7
R18  23904679.820 6  23904684.313 6 127604846.064 6  99248170.615 6
R19  22231638.398 6  22231638.969 5 118924114.437 6  92496649.734 5
R20  23035720.164 7  23035720.430 6 123182343.625 7  95808522.625 6
> 2026 01 01 00 56 30.0000000  0 15
G01  23157982.828 7  23157985.930 4 121695863.179 7  94828063.784 4
G02  25299584.461 5  25299585.988 2 132950173.628 5 103597546.234 2
G03  21009900.422 7  21009905.211 7 110407732.868 7  86032048.020 7
G25  22417017.891 7  22417022.852 6 117802229.839 7  91793982.748 6
G26  23174184.414 7  23174190.453 6 121781190.048 7  94894446.006 6
G28  20687391.852 7  20687394.145 6 108713006.104 7  84711452.092 6
G31  20355705.031 8  20355707.051 7 106969982.144 8  83353247.286 7
G32  22695948.719 7  22695953.289 7 119268027.525 7  92936162.550 7
R02  20694485.250 8  20694486.910 8 110429803.413 8  85889832.145 8
R03  19435124.570 8  19435125.836 8 104037773.040 8  80918259.875 8
R11  23708896.406 6  23708897.055 5 126693161.162 6  98539144.024 5
R12  20016733.219 8  20016735.059 8 106925835.389 8  83164549.906 8
R13  20344506.141 7                 108638523.041 7
R18  23924873.453 6  23924876.422 5 127712629.889 6  99332002.418 5
R20  23021900.297 6  23021901.180 6 123108444.218 6  95751045.312 6
> 2026 01 01 00 57 00.0000000  0 17
G01  23169568.070 7  23169571.078 4 121756740.752 7  94875500.868 4
G02  25314555.234 6  25314555.875 3 133028839.978 6 103658844.722 3
G03  20997237.891 7  20997242.871 7 110341192.465 7  85980198.364 7
G25  22423135.352 7  22423140.816 6 117834380.764 7  91819035.419 6
G26  23150828.055 7  23150834.445 6 121658453.714 7  94798807.335 6
G28  20689918.914 7  20689921.543 6 108726287.142 7  84721800.955 6
G31  20344564.734 8  20344566.801 8 106911438.936 8  83307629.207 8
G32  22708753.516 7  22708758.254 7 119335316.841 7  92988595.757 7
R02  20706709.938 8  20706711.078 8 110495036.278 8  85940568.795 8
R03  19424933.242 8  19424934.734 8 103983218.766 8  80875828.782 8
R04  22430218.055 5                 120112882.01515
R11  23729629.258 6  23729628.590 6 126803947.535 6  98625311.147 6
R12  20019929.797 8  20019931.363 8 106942911.143 8  83177831.028 8
R13  20325502.328 7                 108537046.314 7
R18  23945096.656 6  23945096.770 6 127820569.646 6  99415955.509 6
R19  22244441.992 5  22244441.715 5 118992602.33115  92549918.21315
R20  23008213.219 7  23008214.363 6 123035252.148 7  95694118.217 6
> 2026 01 01 00 57 30.0000000  0 17
G01  23181225.039 7  23181228.285 4 121818002.594 7  94923237.311 4
G02  25329530.336 6  25329531.438 2 133107532.873 6 103720163.914 2
G03  20984680.172 7  20984684.699 7 110275198.979 7  85928774.890 7
G25  22429371.578 7  22429375.852 6 117867146.337 7  91844567.024 6
G26  23127518.531 6  23127525.156 6 121535964.263 6  94703361.028 6
G28  20692541.125 7  20692543.547 6 108740065.678 7  84732537.480 6
G31  20333530.055 7  20333532.020 8 106853451.184 7  83262443.949 8
G32  22721599.836 7  22721604.902 7 119402827.535 7  93041201.442 7
R02  20719010.102 8  20719011.059 8 110560671.063 8  85991618.063 8
R03  19414835.563 8  19414836.625 8 103929164.070 8  80833786.233 8
R04  22406613.281 5  22406614.309 6 119986486.795 5  93322749.63716
R11  23750403.469 6  23750402.914 5 126914961.383 6  98711655.206 5
R12  20023274.422 8  20023276.367 8 106960778.690 8  83191728.022 8
R13  20306619.195 7                 108436209.386 7
R18  23965346.109 6  23965346.008 5 127928663.025 6  99500028.075 5
R19  22251050.875 6  22251049.539 5 119027947.934 6  92577409.273 5
R20  22994658.594 7  22994659.391 6 122962772.094 7  95637744.866 6
> 2026 01 01 00 58 00.0000000  0 17
G01  23192955.367 7  23192958.164 4 121879643.774 7  94971269.391 4
G02  25344507.945 5  25344510.426 2 133186247.917 5 103781500.249 2
G03  20972225.617 7  20972230.285 7 110209752.449 7  85877777.573 7
G25  22435722.023 7  22435727.863 6 117900522.671 7  91870574.547 6
G26  23104257.063 6  23104263.246 6 121413722.648 6  94608107.848 6
G28  20695257.172 7  20695259.465 6 108754338.336 7  84743659.036 6
G31  20322600.625 8  20322602.773 8 106796017.547 8  83217690.474 8
G32  22734488.617 7  22734493.145 7 119470556.678 7  93093977.361 7
R02  20731384.508 8  20731385.703 8 110626704.522 8  86042977.389 8
R03  19404831.711 8  19404832.238 8 103875609.084 8  80792132.371 8
R04  22383032.672 6  22383033.008 6 119860207.726 6  93224532.654 6
R11  23771219.711 6  23771220.035 5 127026196.604 6  98798171.458 5
R12  20026766.922 8  20026768.500 8 106979433.930 8  83206237.656 8
R13  20287855.141 7                 108336013.483 7
R18  23985620.633 6  23985622.793 6 128036903.408 6  99584214.938 6
R19  22257792.727 5  22257792.355 5 119064023.185 5  92605467.689 5
R20  22981237.898 7  22981238.715 6 122891004.580 7  95581925.674 6
> 2026 01 01 00 58 30.0000000  0 18
G01  23204756.773 6  23204759.617 4 121941660.522 6  95019594.144 4
G02  25359491.500 6  25359492.664 2 133264981.053 6 103842850.72612
G03  20959876.164 7  20959881.055 7 110144853.806 7  85827207.221 7
G04  23773232.898 5  23773236.563 2 124929148.85915  97347427.62612
G25  22442189.266 7  22442194.078 6 117934507.025 7  91897055.849 6
G26  23081042.953 7  23081049.680 6 121291731.076 7  94513049.514 6
G28  20698066.531 7  20698069.160 6 108769102.799 7  84755163.813 6
G31  20311776.984 7  20311778.840 8 106739137.816 7  83173368.619 8
G32  22747418.320 7  22747423.250 7 119538502.329 7  93146921.998 7
R02  20743833.297 8  20743835.031 8 110693134.329 8  86094644.995 8
R03  19394919.328 8  19394921.000 8 103822553.684 8  80750867.044 8
R04  22359471.836 6  22359473.297 6 119734045.792 6  93126406.695 6
R11  23792076.281 6  23792076.738 5 127137648.901 6  98884856.477 5
R12  20030406.164 8  20030407.484 8 106998873.997 8  83221357.687 8
R13  20269212.828 7                 108236460.666 7
R18  24005923.391 5  24005927.465 5 128145285.536 5  99668512.119 5
R19  22264673.578 6  22264672.047 5 119100823.648 6  92634090.319 5
R20  22967950.484 6  22967951.320 6 122819951.072 6  95526661.856 6
> 2026 01 01 00 59 00.0000000  0 18
G01  23216629.023 6  23216632.270 4 122004051.325 6  95068210.327 4
G02  25374476.469 6  25374477.574 2 133343731.336 6 103904214.595 2
G03  20947631.477 7  20947635.902 7 110080506.445 7  85777066.418 7
G04  23751667.852 5  23751670.719 3 124815817.368 5  97259117.432 3
G25  22448772.211 7  22448776.594 6 117969098.789 7  91924010.479 6
G26  23057876.953 6  23057883.098 6 121169993.854 6  94418189.356 6
G28  20700969.805 7  20700972.402 6 108784359.045 7  84767051.787 6
G31  20301058.797 7  20301060.863 7 106682814.050 7  83129479.979 7
G32  22760389.063 7  22760393.891 7 119606664.916 7  93200035.648 7
R02  20756357.383 8  20756358.430 8 110759960.960 8  86146621.233 8
R03  19385101.984 8  19385103.914 8 103770001.948 8  80709993.483 8
R04  22335935.086 7  22335934.637 6 119608004.290 7  93028374.448 6
R11  23812974.742 6  23812975.301 5 127249315.582 6  98971708.262 5
R12  20034191.727 8  20034193.445 8 107019098.193 8  83237087.635 8
R13  20250691.086 7                 108137555.394 7
R18  24026254.445 5  24026256.273 5 128253806.185 5  99752916.990 5
R19  22271688.477 5  22271687.238 6 119138348.333 5  92663276.065 6
R20  22954797.820 7  22954798.313 6 122749615.542 7  95471956.502 6
> 2026 01 01 00 59 30.0000000  0 18
G01  23228572.477 7  23228574.973 4 122066810.779 7  95117113.788 4
G02  25389463.938 5  25389464.895 2 133422493.647 5 103965587.882 2
G03  20935491.398 7  20935496.051 7 110016709.812 7  85727354.746 7
G04  23730119.773 5  23730123.398 3 124702584.832 5  97170884.329 3
G25  22455469.117 7  22455474.477 6 118004293.643 7  91951435.018 6
G26  23034759.836 7  23034766.129 6 121048511.483 7  94323527.797 6
G28  20703965.695 7  20703968.441 6 108800103.178 7  84779319.942 6
G31  20290446.461 8  20290448.098 8 106627044.584 8  83086023.265 8
G32  22773400.492 7  22773405.609 7 119675040.992 7  93253315.683 7
R02  20768953.828 8  20768955.695 8 110827180.386 8  86198902.983 8
R03  19375379.422 8  19375381.133 8 103717953.213 8  80669511.131 8
R04  22312420.344 7  22312419.742 6 119482082.536 7  92930435.306 6
R11  23833910.766 6  23833909.785 3 127361190.982 6  99058722.386 3
R12  20038123.492 8  20038125.508 8 107040101.689 8  83253423.695 8
R13  20232289.914 7                 108039297.996 7
R18  24046608.539 5  24046610.992 5 128362458.392 5  99837424.202 5
R19  22278836.320 6  22278836.457 5 119176591.644 6  92693020.819 5
R20  22941779.039 7  22941777.695 6 122679997.949 7  95417809.490 6
> 2026 01 01 01 00 00.0000000  0 18
G01  23240585.031 6  23240587.699 4 122129938.668 6  95166304.312 4
G02  25404455.406 6  25404455.887 2 133501267.942 6 104026970.405 2
G03  20923457.242 7  20923461.605 7 109953468.470 7  85678075.790 7
G04  23708591.570 6  23708595.191 3 124589455.191 6  97082731.347 3
G25  22462281.570 7  22462286.195 6 118040092.258 7  91979330.054 6
G26  23011691.664 7  23011698.215 6 120927289.716 7  94229069.306 6
G28  20707054.563 7  20707057.695 6 108816336.447 7  84791969.246 6
G31  20279939.695 7  20279941.492 8 106571832.394 7  83043000.778 8
G32  22786453.477 7  22786458.133 7 119743632.271 7  93306763.390 7
R02  20781624.805 8  20781626.121 8 110894794.185 8  86251491.458 8
R03  19365751.016 8  19365752.234 8 103666411.125 8  80629422.834 8
R04  22288927.805 7  22288928.938 6 119356285.585 7  92832593.245 6
R11  23854881.617 5                 127473272.909 5
R12  20042202.047 8  20042203.453 8 107061885.313 8  83270366.508 8
R13  20214012.672 7                 107941694.374 7
R18  24066987.531 5  24066990.836 5 128471240.552 5  99922032.444 5
R19  22286121.008 6  22286119.762 6 119215553.425 6  92723324.375 6
R20  22928894.938 6  22928895.906 6 122611103.505 6  95364224.921 6
> 2026 01 01 01 00 30.0000000  0 17
G01  23252666.930 6  23252671.004 4 122193433.974 6  95215781.173 4
G03  20911528.828 7  20911533.566 7 109890786.295 7  85629232.536 7
G04  23687084.289 6  23687087.305 3 124476431.335 6  96994660.854 3
G25  22469209.016 7  22469213.852 6 118076494.630 7  92007695.505 6
G26  22988675.133 7  22988680.891 6 120806333.436 7  94134817.701 6
G28  20710236.875 7  20710240.008 6 108833059.362 7  84805000.095 6
G31  20269539.469 7  20269541.523 8 106517179.904 7  83000414.435 8
G32  22799546.859 7  22799551.953 7 119812439.605 7  93360379.459 7
R02  20794369.469 8  20794371.000 8 110962803.027 8  86304387.172 8
R03  19356217.836 8  19356219.070 8 103615379.716 8  80589731.729 8
R04  22265460.047 7  22265460.656 7 119230616.881 7  92734850.908 7
R11  23875899.445 5  23875896.648 4 127585560.270 5  99233195.43314
R12  20046425.953 8  20046427.410 8 107084448.663 8  83287915.782 8
R13  20195857.539 7                 107844749.041 7
R18  24087390.727 6  24087391.621 5 128580150.096 6 100006739.828 5
R19  22293538.375 6  22293536.555 6 119255232.824 6  92754186.086 6
R20  22916147.609 7  22916147.609 6 122542936.555 7  95311206.249 6
> 2026 01 01 01 01 00.0000000  0 17
G01  23264819.656 6  23264823.309 4 122257292.890 6  95265541.356 4
G03  20899707.641 8  20899711.859 7 109828664.292 8  85580825.790 7
G04  23665596.273 6  23665599.578 3 124363513.602 6  96906673.051 3
G25  22476250.961 7  22476255.098 6 118113497.934 7  92036529.251 6
G26  22965708.836 7  22965714.551 6 120685644.684 7  94040774.511 6
G28  20713512.359 7  20713514.633 6 108850269.627 7  84818410.691 6
G31  20259246.125 7  20259248.188 8 106463087.597 7  82958264.591 8
G32  22812681.531 7  22812686.266 7 119881461.228 7  93414162.514 7
R02  20807187.922 8  20807189.273 8 111031204.865 8  86357588.598 8
R03  19346780.492 8  19346781.719 8 103564859.819 8  80550438.491 8
R04  22242017.453 6  22242017.332 7 119105077.724 6  92637209.366 7
R11  23896946.367 5  23896949.348 4 127698048.107 5  99320685.936 4
R12  20050795.313 8  20050796.488 8 107107788.758 8  83306069.181 8
R13  20177826.039 7                 107748464.375 7
R18  24107817.008 5  24107818.430 5 128689181.749 5 100091542.240 5
R19  22301090.156 7  22301088.160 6 119295625.591 7  92785602.726 6
R20  22903536.344 6  22903537.234 7 122475498.416 6  95258754.431 7
> 2026 01 01 01 01 30.0000000  0 18
G01  23277040.023 6  23277044.043 4 122321514.216 6  95315583.924 4
G03  20887993.766 8  20887997.719 7 109767106.068 8  85532858.354 7
G04  23644129.891 6  23644133.223 3 124250704.795 6  96818770.058 3
G25  22483406.211 7  22483410.691 6 118151101.844 7  92065830.984 6
G26  22942793.828 6  22942800.168 6 120565228.490 6  93946943.756 6
G28  20716879.984 7  20716882.695 6 108867967.495 7  84832201.230 6
G31  20249059.703 7  20249061.746 8 106409557.421 7  82916552.774 8
G32  22825856.508 7  22825861.961 7 119950697.927 7  93468113.151 7
R02  20820079.797 8  20820081.539 8 111100000.094 8  86411095.988 8
R03  19337439.195 8  19337440.383 8 103514855.144 8  80511545.952 8
R04  22218598.281 7  22218598.730 7 118979671.868 7  92539671.483 7
R11  23918037.344 5  23918038.762 4 127810734.309 5  99408330.681 4
R12  20055309.852 8  20055311.660 8 107131905.065 8  83324826.312 8
R13  20159919.320 7                 107652844.630 7
R14  24272970.102 5  24272971.801 5 129388587.96015 100635580.06015
R18  24128262.656 5  24128263.457 4 128798333.000 5 100176437.538 4
R19  22308773.453 6  22308771.684 6 119336730.732 6  92817573.343 6
R20  22891062.609 7  22891061.785 6 122408793.333 7  95206872.717 6
> 2026 01 01 01 02 00.0000000  0 17
G01  23289328.117 6  23289331.793 4 122386087.406 6  95365900.676 4
G03  20876385.391 7  20876390.168 7 109706105.879 7  85485325.726 7
G04  23622682.039 6  23622686.094 4 124137998.379 6  96730946.880 4
G25  22490674.266 7  22490679.648 6 118189296.695 7  92095593.208 6
G26  22919930.461 7  22919936.949 6 120445080.059 7  93853321.614 6
G28  20720338.703 7  20720341.445 6 108886143.846 7  84846364.634 6
G31  20238978.664 7  20238980.578 8 106356581.927 7  82875273.183 8
G32  22839071.063 7  22839076.441 7 120020141.001 7  93522224.577 7
R02  20833044.586 8  20833045.992 8 111169179.742 8  86464902.341 8
R03  19328192.008 8  19328194.195 8 103465359.520 8  80473049.370 8
R04  22195203.648 7  22195203.289 7 118854393.527 7  92442232.775 7
R12  20059967.734 8  20059969.371 8 107156787.488 8  83344179.304 8
R13  20142137.305 7                 107557885.479 7
R14  24243994.688 5  24244000.387 5 129234157.796 5 100515467.706 5
R18  24148727.906 5  24148735.172 5 128907591.661 5 100261416.310 5
R19  22316588.516 7  22316588.164 6 119378537.246 7  92850089.512 6
R20  22878723.375 7  22878724.563 7 122342815.721 7  95155556.900 7
> 2026 01 01 01 02 30.0000000  0 16
G01  23301683.609 6  23301687.199 4 122451014.600 6  95416493.278 4
G03  20864884.891 7  20864889.316 7 109645670.630 7  85438233.346 7
G04  23601255.070 6  23601259.301 3 124025400.645 6  96643208.448 3
G25  22498055.539 7  22498059.727 6 118228085.658 7  92125818.355 6
G26  22897120.094 7  22897126.215 6 120325207.527 7  93759914.472 6
G28  20723889.539 7  20723891.816 6 108904802.406 7  84860903.771 6
G31  20229004.852 7  20229006.434 8 106304167.051 7  82834430.426 8
G32  22852325.852 7  22852331.203 7 120089794.636 7  93576500.104 7
R02  20846081.672 8  20846083.309 8 111238747.617 8  86519010.643 8
R03  19319042.930 8  19319044.211 8 103416379.783 8  80434954.016 8
R04  22171834.469 7  22171833.938 6 118729249.755 7  92344898.728 6
R12  20064770.391 8  20064771.449 8 107182439.071 8  83364130.517 8
R13  20124479.617 7                 107463594.332 7
R14  24215029.805 5  24215033.246 5 129079744.877 5 100395368.783 5
R19  22324536.266 7  22324534.672 6 119421047.478 7  92883153.050 6
R20  22866523.000 7  22866523.035 6 122277573.313 7  95104812.826 6
> 2026 01 01 01 03 00.0000000  0 17
G01  23314105.352 6  23314108.590 4 122516290.014 6  95467357.227 4
G03  20853491.594 8  20853496.566 7 109585799.310 8  85391580.357 7
G04  23579849.234 6  23579852.375 3 123912909.830 6  96555553.293 3
G25  22505549.656 7  22505553.586 6 118267463.666 7  92156502.522 6
G26  22874361.227 7  22874367.328 6 120205610.948 7  93666722.367 6
G28  20727530.859 7  20727533.543 6 108923938.705 7  84875815.174 6
G31  20219136.547 7  20219138.527 8 106252310.747 7  82794022.924 8
G32  22865619.922 7  22865625.281 7 120159654.925 7  93630936.646 7
R02  20859190.008 8  20859192.418 8 111308699.695 8  86573417.794 8
R03  19309988.477 8  19309990.605 8 103367914.417 8  80397258.728 8
R04  22148489.578 6  22148488.926 6 118604239.987 6  92247668.865 6
R12  20069714.734 8  20069716.813 8 107208854.330 8  83384675.734 8
R13  20106947.711 7                 107369971.220 7
R14  24186065.320 5  24186068.203 5 128925349.479 5 100275283.557 5
R18  24189729.930 5                 129126429.79715
R19  22332610.867 6  22332611.559 6 119464255.164 6  92916759.037 6
R20  22854459.156 7  22854460.801 7 122213065.306 7  95054639.870 7
> 2026 01 01 01 03 30.0000000  0 16
G01  23326592.688 6  23326595.996 4 122581912.002 6  95518491.212 4
G03  20842206.578 8  20842211.402 7 109526495.187 8  85345369.360 7
G04  23558464.367 6  23558467.313 3 123800528.483 6  96467983.435 3
G25  22513154.242 7  22513159.734 6 118307430.132 7  92187645.211 6
G26  22851656.125 7  22851661.816 6 120086294.900 7  93573748.819 6
G28  20731263.148 7  20731266.129 6 108943552.801 7  84891098.876 6
G31  20209375.242 7  20209377.242 8 106201014.652 7  82754051.953 8
G32  22878953.789 7  22878958.695 7 120229722.441 7  93685534.661 7
R02  20872371.078 8  20872372.988 8 111379035.865 8  86628123.676 8
R03  19301031.969 8  19301033.547 8 103319966.620 8  80359965.997 8
R04  22125168.484 5  22125169.703 6 118479367.449 5  92150545.823 6
R12  20074802.750 8  20074804.395 8 107236032.454 8  83405814.265 8
R13  20089540.188 7                 107277020.496 7
R14  24157105.203 5  24157108.676 5 128770975.876 5 100155215.137 5
R19  22340820.859 6  22340819.258 6 119508158.698 6  92950906.246 6
R20  22842534.266 6  22842534.777 6 122149295.241 6  95005040.992 6
> 2026 01 01 01 04 00.0000000  0 16
G01  23339145.828 6  23339149.438 3 122647880.236 6  95569895.021 3
G03  20831030.156 8  20831034.758 7 109467762.532 8  85299603.655 7
G04  23537100.008 6  23537103.008 3 123688260.271 6  96380501.747 3
G25  22520872.172 7  22520876.328 6 118347985.500 7  92219246.775 6
G26  22829004.977 7  22829011.125 6 119967264.758 7  93480998.088 6
G28  20735086.945 7  20735089.691 6 108963645.590 7  84906755.606 6
G31  20199721.156 7  20199723.129 8 106150281.809 7  82714519.874 8
G32  22892326.328 7  22892331.438 7 120299998.556 7  93740295.232 7
R02  20885624.484 8  20885626.461 8 111449757.655 8  86683129.488 8
R03  19292173.359 8  19292173.645 8 103272540.977 8  80323079.375 8
R04  22101877.109 6  22101877.266 6 118354636.266 6  92053532.734 6
R12  20080033.133 8  20080035.156 8 107263973.605 8  83427546.271 8
R13  20072260.516 7                 107184747.499 7
R14  24128148.617 6  24128155.094 5 128616630.036 6 100035168.390 5
R19  22349157.672 7  22349156.219 6 119552757.430 7  92985594.140 6
R20  22830748.727 7  22830748.605 6 122086268.011 7  94956019.822 6
> 2026 01 01 01 04 30.0000000  0 16
G01  23351764.430 6  23351767.523 4 122714189.610 6  95621564.670 4
G03  20819962.344 7  20819966.992 7 109409601.158 7  85254283.100 7
G04  23515757.484 6  23515760.117 3 123576104.391 6  96293107.590 3
G25  22528700.813 7  22528705.473 6 118389125.593 7  92251303.981 6
G26  22806409.094 7  22806415.270 6 119848521.547 7  93388470.943 6
G28  20739000.633 7  20739004.000 6 108984213.651 7  84922782.667 6
G31  20190174.313 7  20190175.789 8 106100110.789 7  82675425.584 8
G32  22905739.344 7  22905744.059 7 120370480.399 7  93795216.094 7
R02  20898950.297 8  20898951.461 8 111520861.398 8  86738432.361 8
R03  19283410.734 8  19283412.027 8 103225637.157 8  80286598.639 8
R04  22078611.758 6  22078611.559 6 118230047.200 6  91956630.166 6
R12  20085406.547 8  20085407.766 8 107292673.479 8  83449868.368 8
R13  20055107.438 7                 107093152.836 7
R14  24099201.477 5  24099203.195 5 128462312.687 5  99915143.976 5
R19  22357621.906 6  22357623.082 6 119598046.179 6  93020818.647 6
R20  22819099.273 6  22819101.105 6 122023983.521 6  94907576.319 6
> 2026 01 01 01 05 00.0000000  0 16
G01  23364446.227 6  23364449.555 4 122780835.402 6  95673496.414 4
G03  20809003.508 7  20809007.922 7 109352010.992 7  85209407.657 7
G04  23494436.086 6  23494439.332 3 123464060.022 6  96205800.328 3
G25  22536640.273 7  22536644.707 6 118430846.453 7  92283813.726 6
G26  22783867.813 7  22783874.223 6 119730066.534 7  93296168.357 6
G28  20743004.891 7  20743007.652 6 109005253.617 7  84939177.437 6
G31  20180732.977 7  20180735.301 8 106050499.885 7  82636767.727 8
G32  22919189.938 7  22919194.465 7 120441165.079 7  93850295.023 7
R02  20912345.133 8  20912347.641 8 111592344.196 8  86794030.055 8
R03  19274745.914 8  19274747.234 8 103179254.699 8  80250523.393 8
R04  22055372.250 6  22055372.406 6 118105600.286 6  91859838.100 6
R12  20090920.188 8  20090921.367 8 107322127.373 8  83472776.968 8
R13  20038082.234 7                 107002237.367 7
R14  24070254.578 5  24070260.699 5 128308025.372 5  99795142.629 5
R19  22366217.469 6  22366216.398 6 119644019.835 6  93056575.925 6
R20  22807593.344 7  22807592.410 5 121962442.279 7  94859711.040 5
> 2026 01 01 01 05 30.0000000  0 16
G01  23377191.648 6  23377195.691 3 122847813.798 6  95725687.342 3
G03  20798153.875 8  20798157.363 7 109294992.919 8  85164977.978 7
G04  23473136.211 5  23473139.258 3 123352127.639 5  96118580.291 3
G25  22544689.484 7  22544694.125 6 118473145.036 7  92316773.659 6
G26  22761381.883 7  22761387.941 6 119611901.694 7  93204091.882 6
G28  20747098.094 7  20747100.598 6 109026763.073 7  84955938.052 6
G31  20171399.336 7  20171401.152 8 106001449.151 7  82598546.385 8
G32  22932678.828 7  22932683.652 6 120512050.780 7  93905530.561 6
R02  20925811.484 8  20925813.621 8 111664203.740 8  86849920.786 8
R03  19266179.375 8  19266180.117 8 103133393.874 8  80214853.854 8
R04  22032159.242 7  22032159.238 7 117981296.420 7  91763157.316 7
R12  20096573.914 8  20096575.930 8 107352332.150 8  83496269.581 8
R13  20021183.727 7                 106912003.049 7
R14  24041320.750 6  24041322.816 5 128153770.000 6  99675166.319 5
R19  22374940.508 7  22374938.160 6 119690674.307 7  93092862.739 6
R20  22796222.148 6  22796223.484 6 121901645.313 6  94812424.475 6
> 2026 01 01 01 06 00.0000000  0 16
G01  23390001.148 6  23390004.551 4 122915125.656 6  95778138.123 4
G03  20787412.797 8  20787417.688 7 109238552.640 8  85120998.528 7
G04  23451858.672 5  23451861.430 3 123240312.235 5  96031451.438 3
G25  22552848.555 6  22552853.480 6 118516023.146 6  92350185.148 6
G26  22738952.523 7  22738958.215 6 119494034.063 7  93112246.999 6
G28  20751280.734 8  20751283.457 6 109048744.465 8  84973066.412 6
G31  20162172.984 7  20162174.570 8 105952962.837 7  82560764.852 8
G32  22946206.422 7  22946211.957 7 120583140.458 7  93960925.067 7
R02  20939349.047 8  20939351.199 8 111736442.719 8  86906106.627 8
R03  19257709.141 8  19257711.352 8 103088060.652 8  80179594.674 8
R04  22008972.922 7  22008973.777 7 117857141.874 7  91666592.693 7
R12  20102369.805 8  20102371.141 8 107383289.206 8  83520347.280 8
R13  20004414.500 7                 106822456.188 7
R14  24012389.016 6  24012391.211 5 127999553.823 6  99555220.314 5
R19  22383788.445 7  22383787.734 6 119738010.218 7  93129679.580 6
R20  22784993.047 6  22784994.270 6 121841598.716 6  94765721.658 6
> 2026 01 01 01 06 30.0000000  0 16
G01  23402873.180 6  23402876.473 4 122982769.181 6  95830847.341 4
G03  20776783.477 7  20776788.020 7 109182693.044 7  85077471.576 7
G04  23430601.320 5  23430606.883 2 123128616.270 5  95944415.653 2
G25  22561118.266 7  22561122.613 6 118559479.811 7  92384047.470 6
G26  22716580.359 7  22716586.395 6 119376467.854 7  93020636.971 6
G28  20755553.492 7  20755555.992 6 109071197.433 7  84990562.228 6
G31  20153053.813 7  20153055.824 8 105905042.530 7  82523424.355 8
G32  22959772.844 7  22959778.434 6 120654434.321 7  94016478.688 6
R02  20952958.547 8  20952960.105 8 111809060.969 8  86962587.437 8
R03  19249340.477 8  19249341.988 8 103043257.931 8  80144748.113 8
R04  21985818.117 7  21985817.801 7 117733139.965 7  91570146.770 7
R12  20108305.688 8  20108307.156 8 107414997.308 8  83545009.135 8
R13  19987775.305 7                 106733600.916 7
R14  23983465.805 6  23983469.398 5 127845381.313 6  99435308.469 5
R19  22392764.102 7  22392763.324 6 119786025.479 7  93167024.725 6
R20  22773905.617 6  22773906.012 6 121782305.820 6  94719604.944 6
> 2026 01 01 01 07 00.0000000  0 16
G01  23415807.148 6  23415810.426 4 123050739.946 6  95883811.571 4
G03  20766263.914 8  20766268.621 7 109127414.407 8  85034397.307 7
G04  23409367.938 4  23409373.965 2 123017039.327 4  95857472.563 2
G25  22569497.750 7  22569502.020 6 118603511.287 7  92418357.729 6
G26  22694265.656 6  22694271.953 6 119259204.520 6  92929262.963 6
G28  20759914.891 7  20759917.801 6 109094118.952 7  85008423.151 6
G31  20144042.219 7  20144044.309 8 105857687.060 7  82486524.002 8
G32  22973378.289 7  22973383.723 6 120725929.968 7  94072189.522 6
R02  20966637.117 8  20966639.070 8 111882055.718 8  87019361.104 8
R03  19241070.219 8  19241071.539 8 102998986.001 8  80110314.390 8
R04  21962688.180 7  21962689.941 7 117609291.089 7  91473819.881 7
R12  20114380.820 8  20114382.883 8 107447452.308 8  83570251.911 8
R13  19971265.844 7                 106645438.123 7
R14  23954551.313 5  23954555.441 5 127691253.590 5  99315431.352 5
R19  22401866.070 7  22401865.336 6 119834715.303 7  93204894.571 6
R20  22762959.422 7  22762958.340 6 121723766.848 7  94674074.667 6
> 2026 01 01 01 07 30.0000000  0 16
G01  23428803.242 6  23428807.129 4 123119034.315 6  95937027.928 4
G03  20755856.000 8  20755860.156 7 109072717.818 8  84991776.584 7
G04  23388161.039 5  23388164.125 2 122905582.036 5  95770622.745 2
G25  22577984.086 6  22577989.324 6 118648114.856 6  92453113.730 6
G26  22672009.156 7  22672015.582 6 119142246.486 7  92838126.865 6
G28  20764365.477 7  20764368.266 6 109117506.930 7  85026647.545 6
G31  20135138.430 7  20135140.387 8 105810896.113 7  82450063.533 8
G32  22987022.578 7  22987027.289 6 120797625.737 7  94128056.319 6
R02  20980386.680 8  20980388.754 8 111955425.001 8  87076426.054 8
R03  19232899.242 8  19232900.727 8 102955246.113 8  80076294.485 8
R04  21939590.781 7  21939590.160 7 117485596.932 7  91377613.312 7
R12  20120596.055 8  20120597.391 8 107480651.106 8  83596073.200 8
R13  19954885.563 7                 106557969.838 7
R14  23925646.266 6  23925650.031 5 127537173.354 6  99195591.198 5
R19  22411093.414 7  22411091.945 6 119884075.569 7  93243285.862 6
R20  22752153.016 6  22752153.570 6 121665983.369 6  94629131.931 6
> 2026 01 01 01 08 00.0000000  0 16
G01  23441860.633 6  23441864.504 4 123187648.369 6  95990493.420 4
G03  20745558.281 7  20745562.609 7 109018604.008 7  84949609.960 7
G04  23366974.383 5  23366976.969 2 122794244.639 5  95683866.449 2
G25  22586581.172 7  22586585.535 6 118693287.242 7  92488312.970 6
G26  22649811.344 7  22649818.223 6 119025595.797 7  92747230.259 6
G28  20768904.906 8  20768907.152 6 109141358.803 8  85045233.417 6
G31  20126341.133 7  20126343.402 8 105764669.482 7  82414042.782 8
G32  23000703.438 7  23000708.344 6 120869519.750 7  94184077.580 6
R02  20994205.594 8  20994207.832 7 112029166.477 8  87133780.509 7
R03  19224828.180 8  19224828.930 8 102912038.479 8  80042688.522 8
R04  21916521.711 7  21916520.551 7 117362058.734 7  91281528.050 7
R12  20126949.531 8  20126950.672 8 107514589.985 8  83622470.107 8
R13  19938636.258 7                 106471197.914 7
R14  23896751.109 6  23896752.379 5 127383142.885 6  99075789.725 5
R19  22420446.492 7  22420445.109 6 119934102.103 7  93282195.368 6
R20  22741489.180 6  22741488.211 6 121608956.361 6  94584777.580 6
> 2026 01 01 01 08 30.0000000  0 16
G01  23454977.719 6  23454980.992 3 123256580.615 6  96044206.830 3
G03  20735372.180 7  20735376.391 7 108965076.059 7  84907899.871 7
G04  23345810.484 5  23345814.027 3 122683029.938 5  95597205.637 3
G25  22595285.641 7  22595289.715 6 118739027.658 7  92523954.844 6
G26  22627672.805 7  22627678.926 6 118909256.911 7  92656576.603 6
G28  20773531.898 7  20773534.207 6 109165674.482 7  85064180.694 6
G31  20117652.570 7  20117654.594 8 105719008.586 7  82378462.867 8
G32  23014421.727 7  23014426.949 6 120941612.521 7  94240253.701 6
R02  21008094.313 8  21008096.320 7 112103280.190 8  87191424.456 7
R03  19216856.375 8  19216857.707 8 102869365.971 8  80009498.803 8
R04  21893480.141 7  21893481.125 7 117238679.872 7  91185566.703 7
R12  20133440.461 8  20133442.547 8 107549267.953 8  83649441.870 8
R13  19922516.383 7                 106385126.021 7
R14  23867866.008 6  23867869.039 5 127229166.820 6  98956030.540 5
R19  22429921.805 7  22429921.262 6 119984792.981 7  93321621.580 6
R20  22730966.656 6  22730965.414 6 121552688.882 6  94541014.065 6
> 2026 01 01 01 09 00.0000000  0 16
G01  23468155.414 6  23468158.086 4 123325826.697 6  96098164.771 4
G03  20725297.664 7  20725302.164 7 108912134.314 7  84866646.570 7
G04  23324670.695 6  23324673.672 3 122571937.638 6  95510640.253 3
G25  22604096.969 7  22604101.004 6 118785332.568 7  92560036.582 6
G26  22605594.539 7  22605600.355 6 118793231.526 7  92566167.221 6
G28  20778246.570 7  20778249.188 6 109190451.055 7  85083487.112 6
G31  20109070.891 7  20109073.035 8 105673912.731 7  82343323.237 8
G32  23028177.672 7  23028183.105 6 121013901.686 7  94296582.848 6
R02  21022052.594 8  21022054.211 7 112177763.481 8  87249355.884 7
R03  19208984.664 8  19208986.082 8 102827229.108 8  79976725.696 8
R04  21870470.227 7  21870470.520 7 117115461.312 7  91089730.052 7
R12  20140070.492 8  20140071.672 8 107584680.758 8  83676985.152 8
R13  19906529.039 7                 106299755.392 7
R14  23838990.305 6  23838994.152 6 127075246.884 6  98836315.072 6
R19  22439520.547 6  22439519.758 6 120036143.283 6  93361560.742 6
R20  22720585.680 6  22720586.504 6 121497181.648 6  94497841.808 6
> 2026 01 01 01 09 30.0000000  0 16
G01  23481391.805 6  23481395.555 4 123395386.814 6  96152367.464 4
G03  20715335.492 7  20715339.945 7 108859783.827 7  84825853.977 7
G04  23303554.609 6  23303558.207 3 122460972.393 6  95424173.832 3
G25  22613015.836 6  22613020.441 6 118832202.991 6  92596558.986 6
G26  22583575.859 7  22583582.461 6 118677525.936 7  92476007.055 6
G28  20783049.508 7  20783052.121 6 109215690.352 7  85103154.101 6
G31  20100597.805 8  20100599.977 8 105629385.332 8  82308626.576 8
G32  23041972.141 7  23041977.277 6 121086389.675 7  94353066.933 6
R02  21036080.953 8  21036082.387 8 112252618.512 8  87307576.393 8
R03  19201213.719 8  19201215.539 8 102785632.805 8  79944372.991 8
R04  21847491.320 7  21847490.883 7 116992408.597 7  90994022.455 7
R12  20146837.547 8  20146839.418 8 107620829.163 8  83705100.578 8
R13  19890674.867 7                 106215092.018 7
R14  23810127.836 6  23810130.555 6 126921389.633 6  98716648.417 6
R19  22449243.406 7  22449243.152 7 120088153.236 7  93402012.896 7
R20  22710348.906 6  22710349.770 6 121442440.012 6  94455265.018 6
> 2026 01 01 01 10 00.0000000  0 16
G01  23494687.789 6  23494690.910 4 123465256.308 6  96206811.228 4
G03  20705485.852 7  20705490.746 7 108808024.432 7  84785521.979 7
G04  23282462.492 5  23282466.652 2 122350133.626 5  95337805.950 2
G25  22622041.781 7  22622046.160 6 118879634.992 7  92633518.955 6
G26  22561619.359 7  22561625.066 6 118562141.451 7  92386097.090 6
G28  20787939.828 7  20787942.473 6 109241389.066 7  85123179.060 6
G31  20092232.672 7  20092234.301 8 105585425.050 7  82274371.809 8
G32  23055803.367 7  23055808.500 6 121159073.804 7  94409703.872 6
R02  21050177.984 8  21050179.387 7 112327841.980 8  87366083.519 7
R03  19193544.734 8  19193546.180 8 102744577.021 8  79912440.728 8
R04  21824542.313 7  21824542.363 7 116869521.940 7  90898443.978 7
R12  20153741.266 8  20153743.109 8 107657708.775 8  83733784.714 8
R13  19874953.023 7                 106131136.569 7
R14  23781276.000 6  23781280.117 6 126767596.554 6  98597031.546 6
R19  22459088.594 7  22459088.109 6 120140817.316 7  93442973.819 6
R20  22700254.180 6  22700254.703 6 121388463.854 6  94413283.483 6
> 2026 01 01 01 10 30.0000000  0 16
G01  23508041.195 6  23508044.645 4 123535431.804 6  96261493.405 4
G03  20695749.656 7  20695753.828 7 108756857.292 7  84745651.478 7
G04  23261393.766 6  23261397.594 2 122239422.213 6  95251537.321 2
G25  22631173.727 7  22631179.102 6 118927625.711 7  92670914.307 6
G26  22539723.219 7  22539730.035 6 118447080.606 7  92296439.303 6
G28  20792917.227 7  20792919.844 6 109267545.157 7  85143560.424 6
G31  20083974.922 7  20083977.031 8 105542032.085 7  82240559.112 8
G32  23069671.766 7  23069676.969 6 121231952.620 7  94466492.498 6
R02  21064342.414 8  21064344.848 7 112403432.055 8  87424875.771 7
R03  19185976.016 8  19185977.586 8 102704063.082 8  79880929.879 8
R04  21801625.172 7  21801626.324 7 116746803.405 7  90802996.210 7
R12  20160781.977 8  20160783.410 8 107695316.399 8  83763035.086 8
R13  19859363.859 7                 106047891.118 7
R14  23752436.906 7  23752440.984 6 126613870.247 7  98477466.681 6
R19  22469055.672 7  22469054.914 6 120194131.531 7  93484440.418 6
R20  22690305.750 6  22690305.277 6 121335254.420 6  94371898.458 6
> 2026 01 01 01 11 00.0000000  0 16
G01  23521453.727 6  23521456.746 4 123605912.221 6  96316413.166 4
G03  20686125.844 7  20686130.309 7 108706286.034 7  84706245.304 7
G04  23240351.992 6  23240354.148 2 122128841.394 6  95165370.404 2
G25  22640412.477 6  22640417.703 6 118976174.873 6  92708744.833 6
G26  22517890.828 7  22517896.844 6 118332348.395 7  92207037.607 6
G28  20797981.477 7  20797984.195 6 109294159.041 7  85164298.515 6
G31  20075826.078 7  20075827.813 8 105499208.031 7  82207189.734 8
G32  23083577.625 7  23083582.539 6 121305027.154 7  94523433.653 6
R02  21078577.141 8  21078579.465 7 112479389.672 8  87483953.863 7
R03  19178510.109 8  19178511.230 8 102664094.362 8  79849843.088 8
R04  21778740.992 7  21778741.387 7 116624257.285 7  90707682.548 7
R12  20167957.672 8  20167959.844 8 107733651.094 8  83792850.971 8
R13  19843908.438 7                 105965359.859 7
R14  23723613.930 7  23723615.742 6 126460215.947 7  98357957.804 6
R19  22479143.250 7  22479142.219 6 120248094.579 7  93526411.688 6
R20  22680500.539 5  22680498.363 5 121282815.634 5  94331112.892 5
> 2026 01 01 01 11 30.0000000  0 16
G01  23534922.633 6  23534925.621 4 123676692.193 6  96371566.384 4
G03  20676615.234 7  20676620.266 7 108656309.931 7  84667302.886 7
G04  23219334.219 6  23219337.129 3 122018390.087 6  95079304.513 3
G25  22649756.758 7  22649761.777 6 119025277.940 7  92747006.929 6
G26  22496120.570 7  22496126.613 6 118217945.579 7  92117892.563 6
G28  20803132.734 7  20803135.035 6 109321226.882 7  85185390.336 6
G31  20067784.695 8  20067786.777 8 105456951.408 8  82174262.498 8
G32  23097519.742 7  23097524.750 6 121378294.227 7  94580524.820 6
R02  21092880.320 8  21092882.000 7 112555710.818 8  87543314.704 7
R03  19171145.813 8  19171146.293 8 102624669.601 8  79819179.378 8
R04  21755888.883 7  21755888.887 7 116501883.316 7  90612502.788 7
R12  20175269.414 8  20175271.129 8 107772708.011 8  83823228.563 8
R13  19828586.781 7                 105883542.933 7
R14  23694800.945 7  23694804.598 6 126306635.177 7  98238506.109 6
R19  22489351.344 7  22489350.660 6 120302700.634 7  93568883.021 6
R20  22670833.969 5  22670836.590 6 121231146.763 5  94290925.859 6
> 2026 01 01 01 12 00.0000000  0 16
G01  23548447.563 6  23548451.711 3 123747769.789 6  96426951.492 3
G03  20667219.672 7  20667224.016 7 108606931.438 7  84628826.144 7
G04  23198340.797 6  23198345.012 3 121908070.456 6  94993341.177 3
G25  22659205.430 7  22659209.941 6 119074933.363 7  92785699.449 6
G26  22474414.031 7  22474420.074 6 118103875.975 7  92029007.175 6
G28  20808369.492 7  20808371.941 6 109348747.926 7  85206835.301 6
G31  20059851.781 8  20059853.789 8 105415263.288 8  82141778.251 8
G32  23111499.305 7  23111503.848 6 121451753.708 7  94637765.902 6
R02  21107250.219 8  21107252.684 7 112632395.210 8  87602958.079 7
R03  19163881.898 8  19163883.824 8 102585792.059 8  79788941.293 8
R04  21733068.133 7  21733069.156 7 116379684.527 7  90517459.305 7
R12  20182715.906 8  20182717.520 8 107812485.150 8  83854166.332 8
R13  19813399.156 7                 105802443.738 7
R14  23666003.734 6  23666007.074 6 126153131.011 6  98119113.997 6
R19  22499677.055 6  22499679.160 6 120357947.125 6  93611852.502 6
R20  22661315.070 5  22661318.910 5 121180250.253 5  94251339.785 5
> 2026 01 01 01 12 30.0000000  0 16
G01  23562029.883 6  23562032.621 3 123819141.843 6  96482566.053 3
G03  20657936.828 7  20657941.563 7 108558152.084 7  84590816.248 7
G04  23177373.219 6  23177376.445 3 121797883.710 6  94907481.389 3
G25  22668760.172 7  22668765.082 6 119125138.772 7  92824820.539 6
G26  22452771.102 7  22452777.359 6 117990142.500 7  91940383.712 6
G28  20813692.570 7  20813694.984 6 109376720.549 7  85228632.147 6
G31  20052027.273 8  20052028.883 8 105374143.869 8  82109737.143 8
G32  23125514.398 7  23125518.949 6 121525404.610 7  94695156.139 6
R02  21121689.164 8  21121690.848 7 112709441.267 8  87662882.758 7
R03  19156720.977 8  19156723.324 8 102547462.469 8  79759129.393 8
R04  21710281.703 7  21710282.617 7 116257663.422 7  90422554.003 7
R12  20190296.453 8  20190297.863 8 107852979.498 8  83885661.942 8
R13  19798346.773 7                 105722064.553 7
R14  23637220.836 6  23637224.934 6 125999707.079 6  97999784.336 6
R19  22510126.297 7  22510125.133 6 120413830.125 7  93655317.086 6
R20  22651946.250 5  22651944.551 5 121130128.034 5  94212355.794 5
> 2026 01 01 01 13 00.0000000  0 16
G01  23575666.375 6  23575670.066 3 123890801.804 6  96538404.973 3
G03  20648768.305 7  20648772.949 7 108509969.858 7  84553271.656 7
G04  23156430.500 6  23156432.297 3 121687827.684 6  94821723.442 3
G25  22678416.836 7  22678421.309 6 119175888.313 7  92864365.602 6
G26  22431192.313 7  22431198.340 6 117876744.691 7  91852021.808 6
G28  20819100.508 8  20819102.906 6 109405139.671 8  85250776.915 6
G31  20044310.250 8  20044311.730 8 105333589.728 8  82078136.513 8
G32  23139565.195 7  23139569.871 6 121599242.497 7  94752692.095 6
R02  21136194.828 8  21136196.289 7 112786844.213 8  87723085.000 7
R03  19149663.875 8  19149664.902 8 102509679.059 8  79729742.304 8
R04  21687528.195 7  21687528.988 7 116135818.366 7  90327785.644 7
R12  20198009.984 8  20198011.648 8 107894184.942 8  83917710.607 8
R13  19783428.797 7                 105642403.674 7
R14  23608454.859 6  23608458.363 6 125846363.328 6  97880517.044 6
R19  22520691.031 7  22520689.246 6 120470342.535 7  93699271.143 6
R20  22642719.406 5  22642716.668 5 121080777.781 5  94173972.235 5
> 2026 01 01 01 13 30.0000000  0 16
G01  23589357.047 6  23589360.465 4 123962747.920 6  96594466.857 4
G03  20639713.828 7  20639718.074 7 108462387.456 7  84516194.455 7
G04  23135512.891 6  23135515.250 3 121577904.745 6  94736069.241 3
G25  22688177.453 7  22688182.355 6 119227180.723 7  92904333.715 6
G26  22409678.852 7  22409684.246 6 117763686.734 7  91763924.707 6
G28  20824593.055 7  20824595.922 6 109434004.865 7  85273269.259 6
G31  20036700.547 8  20036702.379 8 105293601.949 8  82046977.209 8
G32  23153651.555 7  23153656.773 6 121673267.597 7  94810373.932 6
R02  21150767.195 8  21150768.566 7 112864603.640 8  87783564.509 7
R03  19142707.102 8  19142709.207 8 102472445.000 8  79700782.493 8
R04  21664808.070 7  21664808.715 7 116014153.049 7  90233157.077 7
R12  20205856.305 8  20205857.902 8 107936099.316 8  83950310.674 8
R13  19768645.844 7                 105563465.053 7
R14  23579704.398 6  23579706.309 6 125693103.406 6  97761314.896 6
R19  22531371.242 6  22531371.203 6 120527482.188 6  93743713.064 6
R20  22633632.719 5  22633632.219 5 121032202.27615  94136191.44215
> 2026 01 01 01 14 00.0000000  0 16
G01  23603101.859 6  23603105.773 4 124034977.225 6  96650749.417 4
G03  20630773.453 7  20630778.012 7 108415406.519 7  84479585.933 7
G04  23114620.281 6  23114623.770 3 121468116.329 6  94650519.881 3
G25  22698040.867 7  22698045.793 6 119279013.799 7  92944723.103 6
G26  22388228.992 7  22388235.039 6 117650971.707 7  91676094.833 6
G28  20830170.859 7  20830173.574 6 109463314.644 7  85296108.055 6
G31  20029199.211 8  20029200.930 8 105254181.645 8  82016260.085 8
G32  23167773.828 7  23167778.359 6 121747479.104 7  94868200.991 6
R02  21165405.094 8  21165407.469 7 112942718.429 8  87844320.409 7
R03  19135854.602 8  19135856.383 8 102435761.468 8  79672250.851 8
R04  21642122.031 7  21642121.992 7 115892669.903 7  90138670.186 7
R12  20213835.773 8  20213836.930 8 107978720.222 8  83983460.267 8
R13  19753999.133 7                 105485251.040 7
R14  23550967.844 6  23550971.828 6 125539931.328 6  97642181.120 6
R19  22542169.141 6  22542169.070 6 120585245.253 6  93788639.856 6
R20  22624694.813 5  22624693.078 5 120984403.241 5  94099014.357 5
> 2026 01 01 01 14 30.0000000  0 16
G01  23616900.359 6  23616903.109 4 124107486.656 6  96707250.271 4
G03  20621947.773 7  20621952.574 7 108369028.445 7  84443447.171 7
G04  23093752.961 6  23093756.195 3 121358463.729 6  94565076.295 3
G25  22708006.234 6  22708011.641 6 119331385.021 6  92985531.832 6
G26  22366846.188 7  22366851.832 6 117538602.526 7  91588534.447 6
G28  20835832.680 7  20835835.160 6 109493067.284 7  85319291.916 6
G31  20021805.375 8  20021807.340 8 105215328.487 8  81985984.900 8
G32  23181931.070 7  23181935.387 6 121821875.905 7  94926172.485 6
R02  21180110.180 8  21180112.043 7 113021187.060 8  87905351.521 7
R03  19129106.508 8  19129107.047 8 102399630.175 8  79644148.742 8
R04  21619470.195 7  21619470.395 7 115771370.913 7  90044326.566 7
R12  20221945.461 8  20221947.277 8 108022044.677 8  84017157.065 8
R13  19739489.148 8                 105407763.686 8
R14  23522250.383 6  23522255.055 6 125386849.954 6  97523117.855 6
R19  22553084.398 7  22553083.641 6 120643628.106 7  93834048.719 6
R20  22615898.922 5  22615900.793 6 120937382.078 5  94062442.442 6
> 2026 01 01 01 15 00.0000000  0 16
G01  23630751.727 6  23630754.410 4 124180273.845 6  96763967.526 4
G03  20613237.766 7  20613241.738 7 108323255.382 7  84407779.852 7
G04  23072914.172 6  23072917.172 3 121248948.890 6  94479740.057 3
G25  22718075.188 7  22718080.039 6 119384292.697 7  93026758.567 6
G26  22345529.125 7  22345535.629 6 117426582.906 7  91501246.438 6
G28  20841578.656 7  20841580.895 6 109523261.953 7  85342820.218 6
G31  20014519.734 8  20014521.879 8 105177042.863 8  81956151.944 8
G32  23196123.289 7  23196128.441 6 121896457.827 7  94984288.191 6
R02  21194880.977 8  21194883.500 7 113100008.826 8  87966657.312 7
R03  19122460.445 8  19122460.711 8 102364053.483 8  79616477.967 8
R04  21596853.578 7  21596854.414 7 115650259.473 7  89950128.786 7
R12  20230186.836 8  20230189.320 8 108066070.313 8  84051399.231 8
R13  19725115.125 8                 105331005.728 8
R14  23493550.836 6  23493555.000 6 125233863.243 6  97404128.277 6
R19  22564112.844 7  22564112.672 6 120702627.843 7  93879937.440 6
R20  22607253.797 6  22607253.059 6 120891140.821 6  94026476.981 6
> 2026 01 01 01 15 30.0000000  0 15
G01  23644654.266 6  23644657.691 4 124253337.349 6  96820900.085 4
G03  20604642.789 7  20604647.633 7 108278090.368 7  84372586.323 7
G04  23052100.469 6  23052104.461 3 121139574.726 6  94394513.451 3
G25  22728244.359 7  22728249.555 6 119437735.951 7  93068402.665 6
G26  22324280.055 7  22324286.527 6 117314917.367 7  91414234.346 6
G28  20847408.648 8  20847411.012 6 109553898.522 8  85366692.870 6
G31  20007342.508 8  20007344.719 8 105139327.306 8  81926763.192 8
G32  23210351.516 7  23210356.492 6 121971225.479 7  95042548.629 6
R02  21209718.922 8  21209720.621 7 113179183.898 8  88028237.863 7
R03  19115919.375 8  19115919.203 8 102329034.197 8  79589240.729 8
R04  21574272.086 7  21574273.324 7 115529339.278 7  89856079.795 7
R12  20238559.930 8  20238561.766 8 108110795.691 8  84086185.617 8
R13  19710877.922 7                 105254980.903 7
R14  23464870.133 6  23464873.809 6 125080976.285 6  97285216.283 6
R19  22575258.188 7  22575257.625 7 120762242.266 7  93926304.143 7
> 2026 01 01 01 16 00.0000000  0 15
G01  23658610.453 6  23658613.266 4 124326673.614 6  96878045.230 4
G03  20596164.125 7  20596168.727 7 108233534.262 7  84337867.285 7
G04  23031314.352 7  23031317.660 4 121030341.980 7  94309397.006 4
G25  22738515.906 6  22738520.750 6 119491711.723 6  93110461.701 6
G26  22303098.406 7  22303104.520 6 117203608.309 7  91327500.025 6
G28  20853321.898 7  20853324.648 6 109584974.832 7  85390908.175 6
G31  20000273.984 8  20000276.141 8 105102181.083 8  81897818.099 8
G32  23224614.742 7  23224619.523 6 122046177.321 7  95100952.594 6
R02  21224622.523 8  21224623.957 7 113258710.258 8  88090091.651 7
R03  19109480.852 8  19109480.945 8 102294572.730 8  79562437.337 8
R04  21551727.063 8  21551727.855 6 115408612.247 8  89762180.983 6
R12  20247063.664 8  20247065.102 8 108156217.475 8  84121513.659 8
R13  19696777.367 7                 105179690.878 7
R14  23436207.758 6  23436211.203 6 124928191.337 6  97166383.600 6
R19  22586516.805 7  22586515.445 7 120822466.905 7  93973145.512 7
> 2026 01 01 01 16 30.0000000  0 15
G01  23672617.258 6  23672620.008 3 124400278.524 6  96935399.704 3
G03  20587801.477 7  20587805.965 7 108189587.374 7  84303622.946 7
G04  23010555.727 7  23010558.766 4 120921250.841 7  94224390.939 4
G25  22748887.914 7  22748893.219 6 119546216.574 7  93152932.991 6
G26  22281985.805 7  22281991.145 6 117092657.574 7  91241044.921 6
G28  20859318.836 7  20859321.535 6 109616488.156 7  85415464.008 6
G31  19993313.688 8  19993315.563 8 105065603.231 8  81869315.885 8
G32  23238911.672 7  23238916.758 6 122121311.355 7  95159498.503 6
R02  21239590.813 8  21239592.859 7 113338585.452 8  88152216.714 7
R03  19103147.758 8  19103147.891 8 102260669.801 8  79536068.376 8
R04  21529218.781 8  21529218.742 6 115288079.443 8  89668433.189 6
R12  20255696.164 8  20255697.512 8 108202331.468 8  84157380.102 8
R13  19682815.898 7                 105105137.052 7
R14  23407564.672 6  23407568.770 6 124775511.211 6  97047632.482 6
R19  22597887.734 7  22597887.516 7 120883297.311 7  94020458.037 7
> 2026 01 01 01 17 00.0000000  0 16
G01  23686673.828 6  23686676.926 4 124474149.085 6  96992961.112 4
G03  20579555.039 7  20579559.293 7 108146251.063 7  84269854.402 7
G04  22989822.891 7  22989825.980 3 120812302.683 7  94139496.266 3
G25  22759359.789 6  22759365.180 6 119601247.912 6  93195814.519 6
G26  22260940.898 7  22260947.148 6 116982068.234 7  91154871.417 6
G28  20865398.117 7  20865401.059 6 109648436.884 7  85440359.104 6
G31  19986461.211 8  19986463.137 8 105029593.708 8  81841256.512 8
G32  23253244.250 7  23253248.949 6 122196626.622 7  95218185.645 6
R02  21254624.586 8  21254625.953 7 113418807.896 8  88214611.934 7
R03  19096917.984 8  19096919.430 8 102227327.337 8  79510135.344 8
R04  21506747.445 7  21506747.320 6 115167743.265 7  89574838.357 6
R12  20264457.383 8  20264459.313 8 108249134.395 8  84193782.376 8
R13  19668991.773 7                 105031320.886 7
R14  23378940.961 6  23378946.246 6 124622938.520 6  96928964.894 6
R19  22609371.445 7  22609371.074 6 120944729.451 7  94068238.545 6
R20  22574128.766 5  22574128.586 6 120713968.56415  93888670.39716
> 2026 01 01 01 17 30.0000000  0 16
G01  23700781.227 6  23700784.176 4 124548282.845 6  97050727.677 4
G03  20571425.102 7  20571429.371 7 108103527.368 7  84236563.210 7
G04  22969117.883 7  22969121.133 4 120703499.395 7  94054714.485 4
G25  22769932.234 7  22769936.813 6 119656803.976 7  93239104.941 6
G26  22239965.328 7  22239971.484 6 116871843.815 7  91068982.268 6
G28  20871560.836 7  20871563.184 6 109680819.950 7  85465592.655 6
G31  19979717.094 8  19979719.145 8 104994153.201 8  81813640.537 8
G32  23267610.609 7  23267615.484 6 122272122.781 7  95277013.756 6
R02  21269723.266 8  21269725.293 7 113499376.917 8  88277276.694 7
R03  19090793.766 8  19090795.715 8 102194546.999 8  79484639.521 8
R04  21484312.055 7  21484312.535 6 115047606.874 7  89481398.928 6
R12  20273347.367 8  20273348.988 8 108296624.128 8  84230718.817 8
R13  19655307.070 7                 104958245.297 7
R14  23350341.438 6  23350345.039 6 124470477.430 6  96810384.052 6
R19  22620968.586 7  22620967.762 6 121006760.187 7  94116484.729 6
R20  22566216.734 5  22566215.168 5 120671651.011 5  93855756.594 5
> 2026 01 01 01 18 00.0000000  0 17
G01  23714937.688 6  23714941.168 3 124622677.623 6  97108697.622 3
G03  20563412.156 7  20563416.449 7 108061418.512 7  84203751.112 7
G04  22948441.641 7  22948445.191 4 120594843.260 7  93970047.363 4
G16  25115426.328 5                 131982316.17715
G25  22780602.570 7  22780608.738 6 119712883.096 7  93282802.968 6
G26  22219060.734 7  22219066.980 6 116761988.136 7  90983380.448 6
G28  20877805.625 7  20877807.914 6 109713636.633 7  85491164.100 6
G31  19973081.648 8  19973083.488 8 104959282.538 8  81786468.580 8
G32  23282011.195 7  23282016.723 6 122347799.762 7  95335982.750 6
R02  21284886.531 7  21284888.945 7 113580291.868 7  88340210.465 7
R03  19084775.516 8  19084777.438 8 102162331.036 8  79459582.678 8
R04  21461916.539 8  21461915.086 6 114927673.108 8  89388117.093 6
R12  20282366.195 8  20282367.668 8 108344798.430 8  84268187.707 8
R13  19641761.914 7                 104885913.246 7
R14  23321761.758 7  23321765.398 6 124318131.852 7  96691893.147 6
R19  22632675.391 7  22632674.594 6 121069386.743 7  94165194.253 6
R20  22558450.609 5  22558449.691 5 120630122.727 5  93823456.957 5
> 2026 01 01 01 18 30.0000000  0 17
G01  23729143.328 6  23729146.703 4 124697327.748 6  97166866.528 4
G03  20555515.297 7  20555519.895 7 108019923.062 7  84171416.985 7
G04  22927792.594 7  22927796.773 4 120486332.877 7  93885493.815 4
G16  25088787.016 4
G25  22791373.875 6  22791378.914 6 119769480.059 6  93326904.447 6
G26  22198226.406 7  22198232.531 6 116652501.449 7  90898066.164 6
G28  20884132.070 8  20884134.633 6 109746882.528 8  85517069.984 6
G31  19966553.641 8  19966555.797 8 104924979.274 8  81759738.771 8
G32  23296445.930 7  23296451.660 6 122423653.880 7  95395089.765 6
R02  21300114.188 8  21300116.148 7 113661548.712 8  88403410.183 7
R03  19078862.023 8  19078864.602 8 102130678.908 8  79434964.375 8
R04  21439556.617 8  21439555.871 6 114807942.136 8  89294992.944 6
R12  20291511.656 8  20291513.383 8 108393651.402 8  84306184.462 8
R13  19628355.313 7                 104814323.709 7
R14  23293203.617 7  23293207.445 6 124165902.398 7  96573492.451 6
R19  22644493.609 7  22644492.891 6 121132602.401 7  94214361.990 6
R20  22550827.898 5  22550832.016 5 120589382.184 5  93791769.860 5
> 2026 01 01 01 19 00.0000000  0 17
G01  23743397.766 6  23743400.238 4 124772230.962 6  97225232.654 4
G03  20547736.711 7  20547740.797 8 107979043.156 7  84139562.526 8
G04  22907172.398 7  22907175.746 4 120377970.415 7  93801055.527 4
G16  25062141.539 4
G25  22802241.453 7  22802246.809 6 119826593.132 7  93371408.111 6
G26  22177463.125 7  22177468.918 6 116543387.488 7  90813042.299 6
G28  20890540.016 7  20890542.824 6 109780556.824 7  85543309.685 6
G31  19960134.344 8  19960136.191 8 104891244.327 8  81733451.803 8
G32  23310914.297 7  23310919.770 6 122499685.061 7  95454334.747 6
R02  21315405.633 8  21315408.270 7 113743146.604 8  88466875.162 7
R03  19073054.695 8  19073057.430 8 102099591.945 8  79410785.621 8
R04  21417236.453 7  21417236.766 6 114688416.925 7  89202028.907 6
R12  20300783.820 8  20300785.281 8 108443180.679 8  84344707.220 8
R13  19615088.695 7                 104743479.332 7
R14  23264669.242 7  23264671.977 6 124013793.083 7  96455185.219 6
R19  22656419.094 7  22656419.012 6 121196404.229 7  94263985.596 6
R20  22543360.039 5  22543360.645 6 120549431.430 5  93760697.092 6
> 2026 01 01 01 19 30.0000000  0 15
G01  23757698.664 6  23757701.965 4 124847385.833 6  97283794.850 4
G03  20540074.852 7  20540079.289 8 107938781.694 7  84108189.942 8
G04  22886580.461 7  22886583.457 4 120269758.871 7  93716734.866 4
G25  22813208.164 7  22813213.734 6 119884221.392 7  93416313.214 6
G26  22156770.977 7  22156777.059 6 116434650.775 7  90728312.400 6
G28  20897029.844 7  20897032.027 6 109814659.409 7  85569883.119 6
G31  19953823.023 8  19953824.934 8 104858079.065 8  81707608.739 8
G32  23325416.227 7  23325422.117 6 122575893.866 7  95513718.148 6
R02  21330761.219 8  21330763.188 7 113825085.741 8  88530605.541 7
R03  19067354.031 8  19067356.313 8 102069073.021 8  79387048.695 8
R04  21394954.836 7  21394954.609 6 114569101.313 7  89109227.866 6
R12  20310181.648 8  20310183.520 8 108493384.701 8  84383754.789 8
R13  19601962.523 7                 104673383.919 7
R14  23236156.430 7  23236160.438 6 123861809.351 7  96336975.720 6
R19  22668455.922 7  22668456.297 6 121260790.086 7  94314063.396 6
> 2026 01 01 01 20 00.0000000  0 15
G01  23772046.992 6  23772050.387 4 124922786.855 6  97342548.886 4
G03  20532530.859 8  20532535.270 8 107899137.462 8  84077298.338 8
G04  22866016.328 7  22866019.930 5 120161697.091 7  93632530.914 5
G25  22824272.086 7  22824276.750 6 119942359.820 7  93461615.885 6
G26  22136150.547 7  22136157.332 6 116326291.882 7  90643876.913 6
G28  20903599.711 7  20903602.563 6 109849186.215 7  85596787.120 6
G31  19947619.820 8  19947621.977 8 104825481.286 8  81682207.869 8
G32  23339952.125 7  23339957.539 6 122652276.970 7  95573237.362 6
R02  21346179.656 7  21346181.777 7 113907362.330 7  88594598.388 7
R03  19061759.859 8  19061761.191 8 102039121.504 8  79363753.065 8
R04  21372711.609 7  21372712.434 6 114449995.645 7  89016590.144 6
R12  20319705.063 8  20319706.965 8 108544257.971 8  84423322.877 8
R13  19588976.250 7                 104604036.956 7
R14  23207669.211 7  23207671.887 6 123709951.520 7  96218864.073 6
R19  22680600.656 6  22680599.254 6 121325753.520 6  94364590.477 6
> 2026 01 01 01 20 30.0000000  0 15
G01  23786441.664 6  23786444.754 4 124998431.755 6  97401492.938 4
G03  20525104.453 8  20525109.172 8 107860112.455 8  84046889.249 8
G04  22845482.508 7  22845485.641 4 120053787.206 7  93548445.299 4
G25  22835431.656 7  22835436.418 6 120001006.581 7  93507314.663 6
G26  22115603.133 7  22115609.539 6 116218314.379 7  90559738.607 6
G28  20910250.367 7  20910253.297 6 109884136.303 7  85624020.929 6
G31  19941524.953 8  19941526.883 8 104793451.605 8  81657249.689 8
G32  23354519.961 7  23354526.086 6 122728834.131 7  95632892.195 6
R02  21361661.281 8  21361663.922 7 113989975.394 8  88658852.928 7
R03  19056270.641 8  19056271.941 8 102009739.228 8  79340900.175 8
R04  21350511.258 7  21350510.906 7 114331102.742 7  88924117.906 7
R12  20329354.656 8  20329355.313 8 108595798.148 8  84463409.666 8
R13  19576130.922 7                 104535441.064 7
R14  23179205.156 6  23179207.926 6 123558223.557 6  96100853.439 6
R19  22692851.773 7  22692851.816 6 121391291.146 7  94415564.143 6
> 2026 01 01 01 21 00.0000000  0 16
G01  23800882.133 6  23800886.051 4 125074317.903 6  97460624.968 4
G03  20517796.500 8  20517801.227 8 107821708.358 8  84016963.971 8
G04  22824977.109 7  22824980.371 4 119946031.029 7  93464479.451 4
G25  22846688.398 7  22846693.023 6 120060159.681 7  93553407.943 6
G26  22095129.336 7  22095135.242 6 116110721.644 7  90475900.125 6
G28  20916982.008 7  20916984.230 6 109919508.406 7  85651583.605 6
G31  19935538.008 8  19935539.969 8 104761990.165 8  81632734.276 8
G32  23369121.219 7  23369127.156 6 122805564.815 7  95692682.245 6
R02  21377205.906 8  21377207.941 7 114072923.971 8  88723368.431 7
R03  19050889.492 8  19050890.117 8 101980928.676 8  79318491.956 8
R04  21328348.711 7  21328348.465 7 114212425.647 7  88831813.509 7
R12  20339126.828 8  20339128.270 8 108648002.328 8  84504012.907 8
R13  19563425.203 7                 104467598.222 7
R14  23150766.063 7  23150769.566 6 123406629.492 7  95982947.013 6
R19  22705209.109 7  22705210.348 6 121457399.884 7  94466982.021 6
R20  22514960.180 5  22514958.477 6 120397570.32915  93642583.23116
> 2026 01 01 01 21 30.0000000  0 15
G01  23815368.078 6  23815371.762 4 125150440.446 6  97519941.221 4
G03  20510606.797 8  20510610.938 8 107783924.566 8  83987522.050 8
G04  22804500.797 7  22804504.172 4 119838428.108 7  93380633.042 4
G25  22858040.313 7  22858045.539 6 120119814.534 7  93599892.223 6
G26  22074728.234 7  22074734.297 6 116003514.834 7  90392362.365 6
G28  20923792.313 7  20923794.879 6 109955299.084 7  85679472.439 6
G31  19929659.117 8  19929660.969 8 104731095.231 8  81608660.302 8
G32  23383755.461 7  23383761.246 6 122882466.308 7  95752605.404 6
R02  21392812.609 8  21392814.988 7 114156204.962 8  88788142.492 7
R03  19045614.359 8  19045614.363 8 101952688.491 8  79296527.344 8
R04  21306226.352 8  21306226.980 7 114093964.984 8  88739677.447 7
R12  20349023.148 8  20349024.977 8 108700865.526 8  84545128.731 8
R13  19550861.648 7                 104400508.318 7
R14  23122352.539 7  23122356.547 6 123255170.771 7  95865145.759 6
R19  22717673.898 7  22717673.441 6 121524073.427 7  94518839.229 6
> 2026 01 01 01 22 00.0000000  0 17
G01  23829897.383 6  23829900.645 4 125226794.331 6  97579437.714 4
G03  20503534.063 8  20503538.820 8 107746760.173 8  83958562.785 8
G04  22784053.570 7  22784056.820 4 119730977.796 7  93296905.532 4
G16  24902092.391 5                 130861255.21915
G25  22869486.352 6  22869491.840 6 120179966.629 6  93646763.979 6
G26  22054401.641 7  22054406.820 7 115896694.720 7  90309125.932 7
G28  20930681.930 7  20930684.398 6 109991504.557 7  85707684.479 6
G31  19923887.625 8  19923889.133 8 104700764.725 8  81585026.145 8
G32  23398421.477 7  23398427.078 6 122959535.587 7  95812659.297 6
R02  21408481.492 8  21408483.313 7 114239814.525 8  88853172.071 7
R03  19040444.586 8  19040445.547 8 101925017.826 8  79275005.718 8
R04  21284144.625 8  21284145.660 7 113975721.349 8  88647710.188 7
R12  20359041.039 8  20359043.012 8 108754382.371 8  84586752.946 8
R13  19538438.945 7                 104334171.180 7
R14  23093965.508 7  23093969.332 6 123103848.385 7  95747450.561 6
R19  22730243.469 6  22730241.926 6 121591306.343 6  94571131.459 6
R20  22501649.594 5  22501645.590 5 120326388.70815  93587219.71615
> 2026 01 01 01 22 30.0000000  0 17
G01  23844471.984 6  23844476.645 4 125303385.492 6  97639119.145 4
G03  20496582.164 8  20496586.574 8 107710225.413 8  83930094.127 8
G04  22763637.195 7  22763640.828 5 119623690.535 7  93213305.064 5
G16  24875393.461 5                 130720949.78715
G25  22881028.469 6  22881034.602 6 120240622.337 6  93694028.140 6
G26  22034149.336 7  22034155.824 6 115790273.321 7  90226200.170 6
G28  20937652.242 7  20937654.586 6 110028132.201 7  85736225.483 6
G31  19918224.914 8  19918226.453 8 104671007.519 8  81561838.708 8
G32  23413120.703 7  23413126.570 6 123036780.778 7  95872850.243 6
R02  21424212.617 8  21424215.203 7 114323760.346 8  88918463.208 7
R03  19035383.617 8  19035384.793 8 101897928.238 8  79253936.020 8
R04  21262107.313 8  21262106.984 7 113857706.104 8  88555920.522 7
R12  20369182.992 8  20369184.758 8 108808558.740 8  84628890.096 8
R13  19526159.641 7                 104268597.666 7
R14  23065605.320 7  23065607.996 6 122952674.949 7  95629871.288 6
R19  22742917.672 6  22742915.707 6 121659103.494 6  94623862.563 6
R20  22495218.500 5  22495215.055 5 120291995.97115  93560469.85415
> 2026 01 01 01 23 00.0000000  0 16
G01  23859091.898 6  23859094.809 3 125380206.962 6  97698980.029 3
G03  20489749.023 8  20489753.617 8 107674317.396 8  83902113.869 8
G04  22743252.273 7  22743255.254 5 119516563.745 7  93129829.652 5
G16  24848687.867 5                 130580616.176 5
G25  22892665.344 6  22892670.992 6 120301775.106 6  93741679.608 6
G26  22013973.781 7  22013979.836 7 115684249.479 7  90143584.202 7
G28  20944701.453 7  20944703.918 6 110065176.362 7  85765091.058 6
G31  19912670.273 8  19912672.262 8 104641819.408 8  81539094.724 8
G32  23427852.602 7  23427858.219 6 123114196.844 7  95933174.360 6
R02  21440006.055 8  21440007.965 7 114408037.099 8  88984011.748 7
R03  19030431.344 8  19030432.383 8 101871416.497 8  79233315.771 8
R04  21240110.250 7  21240110.566 7 113739917.760 7  88464307.389 7
R12  20379447.945 8  20379448.641 8 108863387.674 8  84671534.808 8
R13  19514022.625 7                 104203785.463 7
R14  23037274.266 7  23037276.387 6 122801649.648 7  95512407.134 6
R19  22755694.297 7  22755694.094 6 121727456.927 7  94677026.379 6
> 2026 01 01 01 23 30.0000000  0 16
G01  23873753.539 6  23873756.324 4 125457255.236 6  97759017.606 4
G03  20483035.273 8  20483039.844 8 107639036.757 8  83874622.444 8
G04  22722897.156 7  22722900.371 5 119409598.229 7  93046479.915 5
G16  24821979.227 5                 130440257.12115
G25  22904396.586 7  22904402.391 6 120363421.787 7  93789715.980 6
G26  21993874.617 7  21993880.582 6 115578625.592 7  90061279.888 6
G28  20951829.383 7  20951832.262 6 110102634.746 7  85794279.413 6
G31  19907224.398 8  19907226.121 8 104613200.197 8  81516794.035 8
G32  23442616.844 7  23442622.270 6 123191782.373 7  95993630.514 6
R02  21455861.164 7  21455863.309 7 114492642.638 7  89049815.993 7
R03  19025586.570 8  19025587.563 8 101845483.212 8  79213145.433 8
R04  21218157.266 7  21218157.820 7 113622358.291 7  88372872.274 7
R12  20389832.523 8  20389834.398 8 108918865.018 8  84714683.863 8
R13  19502027.617 7                 104139735.514 7
R14  23008968.578 7  23008972.746 6 122650775.102 7  95395060.281 6
R19  22768576.367 7  22768574.844 5 121796362.132 7  94730619.313 5
> 2026 01 01 01 24 00.0000000  0 17
G01  23888457.211 6  23888460.043 3 125534525.160 6  97819227.908 3
G03  20476440.781 8  20476445.410 8 107604382.547 8  83847619.168 8
G04  22702572.758 7  22702576.484 5 119302793.403 7  92963255.392 5
G16  24795263.711 5                 130299873.20415
G25  22916220.305 6  22916226.539 6 120425557.619 6  93838133.505 6
G26  21973851.414 7  21973857.223 6 115473402.509 7  89979287.879 6
G28  20959035.906 7  20959038.219 6 110140503.664 7  85823787.651 6
G31  19901885.570 8  19901887.980 8 104585147.424 8  81494934.741 8
G32  23457412.703 7  23457418.047 6 123269534.365 7  96054216.377 6
R02  21471777.828 8  21471778.754 7 114577573.156 8  89115873.034 7
R03  19020850.125 8  19020850.816 8 101820127.734 8  79193424.501 8
R04  21196246.586 7  21196247.059 7 113505028.188 7  88281615.518 7
R12  20400338.039 8  20400340.535 8 108974985.530 8  84758333.136 8
R13  19490175.922 7                 104076447.159 7
R14  22980694.961 7  22980698.422 6 122500052.779 7  95277831.821 6
R19  22781560.914 6  22781557.242 5 121865813.051 6  94784636.592 5
R20  22476820.617 5  22476813.980 4 120193517.20615
> 2026 01 01 01 24 30.0000000  0 17
G01  24202995.141 6  24202998.758 4 127187435.172 6  99107209.699 4
G03  20769758.961 8  20769763.750 8 109145781.040 8  85048708.893 8
G04  22982072.914 7  22982076.598 5 120771578.299 7  94107763.113 5
G16  25068339.570 5                 131734895.775 5
G25  23227929.578 6  23227935.219 6 122063602.035 6  95114531.708 6
G26  22253698.180 7  22253704.367 7 116944010.634 7  91125216.296 7
G28  21266112.906 7  21266115.152 6 111754204.234 7  87081216.651 6
G31  20196448.555 8  20196451.016 8 106133086.077 8  82701120.707 8
G32  23772032.969 7  23772038.219 6 124922873.342 7  97342532.361 6
R02  21787546.719 8  21787548.723 7 116262578.741 8  90426432.850 7
R03  19316014.836 8  19316016.090 8 103400168.591 8  80422345.160 8
R04  21474173.258 7  21474174.086 7 114993312.924 7  89439170.304 7
R12  20710757.383 8  20710758.660 8 110633185.489 8  86048044.204 8
R13  19778259.773 7                 105614803.626 7
R14  23252243.102 7  23252245.984 6 123947557.539 7  96403668.880 6
R19  23094437.773 6  23094435.730 6 123539495.024 6  96086389.188 6
R20  22770775.453 5  22770775.961 5 121765449.575 5  94706541.02215
> 2026 01 01 01 25 00.0000000  0 17
G01  24217782.523 6  24217786.102 4 127265143.231 6  99167761.408 4
G03  20763404.656 8  20763408.660 8 109112386.771 8  85022687.377 8
G04  22961811.781 7  22961815.180 5 120665102.979 7  94024795.349 5
G16  25041618.750 5                 131594474.09815
G25  23239939.391 6  23239945.215 6 122126712.237 6  95163708.501 6
G26  22233829.984 7  22233835.898 6 116839601.589 7  91043858.612 6
G28  21273475.070 7  21273477.719 6 111792892.983 7  87111363.728 6
G31  20191327.086 8  20191328.832 8 106106169.580 8  82680146.811 8
G32  23786891.859 7  23786897.660 6 125000959.301 7  97403378.439 6
R02  21803584.773 8  21803586.352 7 116348158.976 8  90492995.196 7
R03  19311495.438 8  19311496.645 8 103375976.031 8  80403528.720 8
R04  21452350.367 7  21452351.645 7 114876453.154 7  89348279.381 7
R12  20721502.469 8  20721504.016 8 110690586.243 8  86092689.243 8
R13  19766696.211 7                 105553048.137 7
R14  23224027.422 7  23224030.461 6 123797153.374 7  96286687.909 6
R19  23107621.578 6  23107621.219 6 123610029.266 6  96141249.173 6
R20  22765091.492 5  22765091.383 4 121735054.954 5  94682900.736 4
> 2026 01 01 01 25 30.0000000  0 17
G01  24232610.867 6  24232614.922 3 127343068.154 6  99228482.103 3
G03  20757170.727 8  20757174.867 8 109079626.523 8  84997159.903 8
G04  22941581.836 7  22941585.695 5 120558797.040 7  93941959.553 5
G16  25014894.625 5                 131454040.401 5
G25  23252042.227 7  23252047.629 6 122190308.174 7  95213263.721 6
G26  22214040.523 7  22214046.512 7 116735606.417 7  90962823.420 7
G28  21280914.844 7  21280918.207 6 111831991.628 7  87141830.188 6
G31  20186313.414 8  20186315.293 8 106079823.336 8  82659617.267 8
G32  23801783.367 7  23801788.676 6 125079213.271 7  97464355.453 6
R02  21819683.211 8  21819684.652 7 116434064.257 8  90559810.354 7
R03  19307085.570 8  19307086.797 8 103352369.345 8  80385167.967 8
R04  21430574.055 8  21430573.695 7 114759834.873 8  89257576.272 7
R12  20732366.727 8  20732369.379 8 110748624.646 8  86137830.215 8
R13  19755274.875 7                 105492063.478 7
R14  23195843.273 7  23195846.559 6 123646915.710 7  96169836.434 6
R19  23120906.742 6  23120907.254 6 123681101.513 6  96196527.512 6
R20  22759559.047 6  22759559.688 5 121705464.850 6  94659886.319 5
> 2026 01 01 01 26 00.0000000  0 17
G01  24247479.914 6  24247483.895 3 127421205.351 6  99289368.181 3
G03  20751056.852 8  20751061.660 8 109047499.568 8  84972125.904 8
G04  22921384.906 7  22921388.656 5 120452660.171 7  93859255.515 5
G16  24988168.227 5                 131313595.699 5
G25  23264234.828 6  23264239.938 5 122254385.325 6  95263193.976 5
G26  22194329.789 7  22194336.090 7 116632026.142 7  90882111.525 7
G28  21288432.727 7  21288435.379 6 111871496.672 7  87172613.322 6
G31  20181408.039 8  20181409.836 8 106054045.490 8  82639530.645 8
G32  23816705.977 7  23816711.453 6 125157632.605 7  97525461.317 6
R02  21835841.602 8  21835844.176 7 116520291.350 8  90626875.800 7
R03  19302784.398 8  19302785.734 8 103329348.028 8  80367262.482 8
R04  21408840.680 8  21408841.109 8 114643458.632 8  89167061.440 8
R12  20743350.430 8  20743352.734 8 110807295.573 8  86183463.134 8
R13  19743998.664 7                 105431849.612 7
R14  23167690.023 7  23167694.035 7 123496846.412 7  96053115.898 7
R19  23134294.664 6  23134293.500 6 123752706.158 6  96252219.948 6
R20  22754175.250 6  22754173.758 4 121676678.039 6  94637496.558 4
> 2026 01 01 01 26 30.0000000  0 17
G01  24262388.750 6  24262392.387 3 127499550.040 6  99350415.997 3
G03  20745063.906 8  20745068.375 8 109016005.266 8  84947584.902 8
G04  22901220.313 7  22901223.730 5 120346692.201 7  93776683.099 5
G16  24961442.469 5  24961445.855 2 131173141.26115 102212945.63412
G25  23276519.336 6  23276525.008 6 122318939.505 6  95313495.906 6
G26  22174698.555 7  22174704.387 7 116528862.035 7  90801723.916 7
G28  21296026.813 7  21296029.457 6 111911404.821 7  87203710.564 6
G31  20176610.664 8  20176612.008 8 106028833.948 8  82619885.276 8
G32  23831659.633 7  23831665.523 6 125236214.710 7  97586694.006 6
R02  21852060.805 8  21852062.922 7 116606836.956 8  90694188.985 7
R03  19298593.836 8  19298594.945 8 103306911.970 8  80349812.206 8
R04  21387154.313 8  21387153.641 7 114527325.659 8  89076735.823 7
R12  20754451.547 8  20754453.332 8 110866593.891 8  86229584.034 8
R13  19732866.539 7                 105372406.019 7
R14  23139570.852 7  23139573.422 7 123346946.910 7  95936527.440 7
R19  23147777.852 6  23147777.293 6 123824837.148 6  96308321.808 6
R20  22748941.078 6  22748941.855 5 121648693.580 6  94615730.992 5
> 2026 01 01 01 27 00.0000000  0 17
G01  24277336.648 6  24277339.887 3 127578101.544 6  99411624.921 3
G03  20739191.797 8  20739196.004 8 108985146.811 8  84923539.335 8
G04  22881088.008 7  22881091.488 5 120240896.725 7  93694245.093 5
G16  24934713.836 5
G25  23288895.109 6  23288899.625 6 122383970.177 6  95364169.146 6
G26  22155147.477 7  22155153.047 7 116426119.114 7  90721664.504 7
G28  21303698.305 7  21303700.563 6 111951716.509 7  87235122.265 6
G31  20171921.242 8  20171922.770 8 106004191.079 8  82600683.040 8
G32  23846644.961 7  23846650.809 6 125314960.797 7  97648054.485 6
R02  21868339.633 7  21868341.457 7 116693701.894 7  90761750.520 7
R03  19294511.797 8  19294513.523 8 103285064.140 8  80332819.451 8
R04  21365513.813 8  21365513.277 7 114411440.428 8  88986602.887 7
R12  20765669.477 8  20765671.133 8 110926518.659 8  86276192.181 8
R13  19721879.781 7                 105313736.740 7
R14  23111482.063 7  23111485.504 7 123197223.010 7  95820075.548 7
R19  23161360.750 6  23161359.180 6 123897492.882 6  96364831.794 6
R20  22743862.563 5  22743859.352 6 121621513.775 5  94594591.139 6
> 2026 01 01 01 27 30.0000000  0 17
G01  24292323.852 6  24292326.895 3 127656855.043 6  99472991.274 3
G03  20733440.453 8  20733444.859 8 108954923.488 8  84899988.688 8
G04  22860988.570 7  22860991.816 5 120135273.623 7  93611941.385 5
G16  24907983.656 5  24907988.875 2 130892219.19715 101994045.42512
G25  23301359.102 6  23301364.871 6 122449473.020 6  95415210.281 6
G26  22135676.672 7  22135682.301 7 116323798.578 7  90641934.226 7
G28  21311445.641 7  21311447.613 6 111992428.403 7  87266845.810 6
G31  20167339.672 8  20167341.523 8 105980114.917 8  82581922.398 8
G32  23861660.430 7  23861666.191 6 125393868.394 7  97709540.787 6
R02  21884677.102 7  21884679.301 7 116780882.919 7  90829557.916 7
R03  19290540.953 8  19290541.910 8 103263804.588 8  80316284.234 8
R04  21343919.086 8  21343918.938 7 114295804.158 8  88896663.562 7
R12  20777004.531 8  20777006.172 8 110987064.627 8  86323283.496 8
R13  19711039.000 7                 105255841.507 7
R14  23083426.914 7  23083430.617 7 123047675.579 7  95703760.956 7
R19  23175038.875 6  23175039.266 6 123970667.510 6  96421745.356 6
R20  22738929.250 5  22738925.914 5 121595137.74115  94574076.46515
> 2026 01 01 01 28 00.0000000  0 17
G01  24307347.563 6  24307350.059 3 127735806.232 6  99534511.632 3
G03  20727809.797 8  20727814.227 8 108925334.866 8  84876932.626 8
G04  22840921.570 7  22840925.148 5 120029822.954 7  93529772.016 5
G16  24881253.922 5  24881259.277 2 130751754.14515 101884592.11912
G25  23313913.297 6  23313918.949 6 122515443.918 6  95466616.150 6
G26  22116285.484 7  22116291.922 7 116221901.900 7  90562534.214 7
G28  21319268.492 7  21319270.832 6 112033537.452 7  87298878.821 6
G31  20162865.719 8  20162867.285 8 105956603.575 8  82563601.864 8
G32  23876706.453 7  23876712.418 6 125472935.034 7  97771151.051 6
R02  21901073.039 7  21901075.633 7 116868377.108 7  90897608.884 7
R03  19286679.219 8  19286680.430 8 103243132.321 8  80300205.803 8
R04  21322371.633 8  21322371.676 8 114180417.959 8  88806918.734 8
R12  20788454.156 8  20788455.680 8 111048227.122 8  86370854.308 8
R13  19700340.734 7                 105198720.056 7
R14  23055405.984 7  23055409.355 7 122898307.466 7  95587585.828 7
R19  23188813.805 6  23188814.250 6 124044355.483 6  96479058.245 6
R20  22734148.375 5  22734144.113 5 121569555.67715  94554196.22415
> 2026 01 01 01 28 30.0000000  0 17
G01  24322407.641 6  24322411.316 3 127814950.997 6  99596182.859 3
G03  20722300.156 8  20722304.344 8 108896380.997 8  84854371.155 8
G04  22820888.539 7  22820891.602 5 119924545.265 7  93447737.456 5
G16  24854523.219 5  24854528.094 2 130611289.321 5 101775138.961 2
G25  23326555.016 6  23326560.828 5 122581879.367 6  95518383.991 5
G26  22096976.797 7  22096982.563 7 116120431.008 7  90483465.980 7
G28  21327165.813 7  21327168.813 6 112075041.039 7  87331219.259 6
G31  20158499.289 8  20158500.367 8 105933656.117 8  82545720.720 8
G32  23891782.172 7  23891788.309 6 125552159.001 7  97832883.865 6
R02  21917527.719 8  21917530.086 7 116956181.859 8  90965901.396 7
R03  19282926.945 8  19282928.391 8 103223048.063 8  80284584.712 8
R04  21300870.922 8  21300870.914 7 114065283.358 8  88717369.611 7
R12  20800017.242 8  20800019.742 8 111110001.756 8  86418901.227 8
R13  19689788.766 7                 105142372.688 7
R14  23027419.227 7  23027422.383 7 122749120.502 7  95471551.565 7
R19  23202685.133 6  23202684.230 6 124118551.951 6  96536766.545 6
R20  22729513.836 5  22729511.645 5 121544784.506 5  94534929.889 5
> 2026 01 01 01 29 00.0000000  0 17
G01  24337505.922 6  24337509.293 3 127894292.367 6  99658007.305 3
G03  20716912.047 8  20716917.086 8 108868068.556 8  84832309.508 8
G04  22800888.672 7  22800892.383 5 119819447.917 7  93365843.438 5
G16  24827793.883 5                 130470832.98515
G25  23339286.867 6  23339292.070 5 122648782.427 6  95570516.228 5
G26  22077749.930 7  22077756.281 7 116019394.540 7  90404736.264 7
G28  21335139.789 7  21335142.777 6 112116943.274 7  87363870.349 6
G31  20154239.844 8  20154242.070 8 105911277.927 8  82528283.153 8
G32  23906889.117 7  23906895.004 6 125631545.111 7  97894743.057 6
R02  21934041.758 8  21934044.230 7 117044301.650 8  91034438.925 7
R03  19279286.281 8  19279287.961 8 103203559.202 8  80269426.703 8
R04  21279418.531 8  21279418.988 7 113950409.403 8  88628023.196 7
R12  20811697.414 8  20811699.188 8 111172391.017 8  86467426.196 8
R13  19679383.727 7                 105086807.053 7
R14  22999466.289 7  22999470.895 7 122600124.562 7  95355665.879 7
R19  23216651.547 6  23216650.164 6 124193258.473 6  96594871.643 6
R20  22725031.125 5  22725030.832 5 121520822.068 5  94516292.474 5
> 2026 01 01 01 29 30.0000000  0 17
G01  24352640.625 6  24352643.770 3 127973823.484 6  99719979.583 3
G03  20711646.359 8  20711650.719 8 108840394.607 8  84810745.387 8
G04  22780923.492 7  22780926.266 5 119714528.524 7  93284088.092 5
G16  24801068.398 4
G25  23352105.672 6  23352110.223 5 122716146.521 6  95623007.698 5
G26  22058606.000 7  22058612.082 7 115918791.413 7  90326344.235 7
G28  21343188.180 7  21343191.051 6 112159238.604 7  87396827.724 6
G31  20150088.516 7  20150091.281 8 105889464.799 7  82511285.939 8
G32  23922025.953 7  23922031.480 6 125711088.633 7  97956724.903 6
R02  21950613.156 7  21950615.719 7 117132730.980 7  91103217.229 7
R03  19275755.977 8  19275757.867 8 103184662.641 8  80254729.382 8
R04  21258014.531 8  21258015.473 8 113835794.243 8  88538878.074 8
R12  20823490.602 8  20823492.414 8 111235387.589 8  86516423.509 8
R13  19669124.398 7                 105032020.190 7
R14  22971552.359 7  22971555.434 7 122451318.475 7  95239927.830 7
R19  23230709.594 6  23230709.242 6 124268467.061 6  96653367.140 6
R20  22720698.984 5  22720701.094 5 121497664.54115  94498281.11715
> 2026 01 01 01 30 00.0000000  0 17
G01  24367809.211 6  24367813.102 3 128053537.993 6  99782094.695 3
G03  20706501.000 8  20706505.414 7 108813356.589 8  84789676.806 7
G04  22760991.031 7  22760994.867 5 119609785.225 7  93202469.950 5
G16  24774344.813 5  24774348.477 2 130189943.55815 101446813.60912
G25  23365011.523 6  23365016.496 5 122783965.640 6  95675853.736 5
G26  22039544.258 7  22039550.152 7 115818621.148 7  90248289.486 7
G28  21351310.648 7  21351313.129 6 112201921.945 7  87430087.437 6
G31  20146045.094 8  20146047.301 8 105868213.345 8  82494726.387 8
G32  23937191.859 7  23937197.672 6 125790785.208 7  98018825.991 6
R02  21967240.836 8  21967244.813 7 117221464.809 8  91172232.354 7
R03  19272336.391 8  19272337.941 8 103166356.271 8  80240491.089 8
R04  21236659.805 8  21236659.813 8 113721437.428 8  88449933.917 8
R12  20835396.922 8  20835398.281 8 111298984.700 8  86565887.921 8
R13  19659008.961 7                 104978009.440 7
R14  22943671.633 7  22943674.953 7 122302702.619 7  95124337.747 7
R19  23244861.930 5  23244861.328 6 124344170.283 5  96712247.398 6
R20  22716517.883 6  22716520.695 6 121475309.009 6  94480893.362 6
> 2026 01 01 01 30 30.0000000  0 16
G01  24383013.477 6  24383017.133 3 128133435.347 6  99844352.373 3
G03  20701477.609 8  20701482.063 8 108786957.994 8  84769106.459 8
G04  22741093.820 7  22741097.121 5 119505222.135 7  93120992.240 5
G16  24747621.719 5  24747626.047 2 130049515.12015 101337388.94112
G25  23378003.148 6  23378008.543 5 122852239.559 6  95729054.206 5
G26  22020566.164 7  22020571.945 7 115718889.096 7  90170576.200 7
G28  21359506.984 7  21359509.352 6 112244994.221 7  87463650.245 6
G31  20142108.930 8  20142110.617 8 105847525.566 8  82478606.032 8
G32  23952387.320 7  23952392.883 6 125870636.562 7  98081047.694 6
R02  21983927.008 7  21983930.371 7 117310504.337 7  91241485.250 7
R03  19269027.727 8  19269029.066 8 103148643.016 8  80226714.097 8
R04  21215353.180 8  21215354.141 7 113607344.390 8  88361194.896 7
R12  20847415.102 8  20847415.781 8 111363181.484 8  86615818.717 8
R13  19649039.945 7                 104924779.409 7
R14  22915827.148 7  22915832.207 7 122154282.938 7  95008900.273 7
R20  22712490.102 6  22712489.766 5 121453758.087 6  94464131.416 5
> 2026 01 01 01 31 00.0000000  0 17
G01  24398250.789 6  24398254.695 3 128213510.588 6  99906748.673 3
G03  20696575.703 8  20696579.996 8 108761197.639 8  84749033.447 8
G04  22721230.547 7  22721233.574 5 119400838.795 7  93039654.579 5
G16  24720902.742 5  24720906.672 2 129909100.453 5 101227974.938 2
G25  23391081.258 6  23391086.664 5 122920963.772 6  95782605.475 5
G26  22001671.164 7  22001677.215 7 115619596.080 7  90093205.015 7
G28  21367776.898 7  21367779.027 6 112288451.735 7  87497513.238 6
G31  20138278.859 8  20138280.598 8 105827399.294 8  82462923.212 8
G32  23967611.445 7  23967617.625 6 125950639.790 7  98143387.738 6
R02  22000671.305 7  22000673.254 7 117399846.112 7  91310973.220 7
R03  19265829.063 8  19265830.762 8 103131522.437 8  80213398.093 8
R04  21194097.031 8  21194097.227 7 113493515.373 8  88272661.215 7
R12  20859543.148 8  20859544.543 8 111427972.423 8  86666211.679 8
R13  19639218.352 7                 104872328.761 7
R14  22888022.281 7  22888026.141 6 122006060.765 7  94893616.385 6
R19  23273438.398 5  23273442.242 5 124497042.18915  96831161.25915
R20  22708611.039 5  22708610.898 4 121433010.038 5  94447994.115 4
> 2026 01 01 01 31 30.0000000  0 17
G01  24413522.898 6  24413526.742 3 128293766.572 6  99969285.739 3
G03  20691796.047 8  20691800.645 7 108736081.946 8  84729462.768 7
G04  22701402.109 7  22701405.473 5 119296642.344 7  92958462.537 5
G16  24694185.984 5  24694189.637 2 129768708.389 5 101118578.455 2
G25  23404245.281 6  23404250.492 5 122990140.940 6  95836509.743 5
G26  21982861.727 7  21982867.289 7 115520750.562 7  90016182.530 7
G28  21376120.711 7  21376123.211 6 112332298.417 7  87531679.470 6
G31  20134556.914 8  20134558.551 8 105807839.615 8  82447681.898 8
G32  23982865.336 7  23982871.203 5 126030799.582 7  98205849.762 5
R02  22017470.953 8  22017473.563 7 117489493.979 8  91380699.222 7
R03  19262743.055 8  19262744.660 8 103115002.210 8  80200549.015 8
R04  21172891.234 8  21172891.340 7 113379959.122 8  88184339.682 7
R12  20871783.664 8  20871785.246 8 111493359.824 8  86717068.513 8
R13  19629543.578 7                 104820664.671 7
R14  22860255.070 7  22860257.664 6 121858044.885 7  94778492.956 6
R19  23287869.883 5  23287865.785 4 124574213.563 5  96891183.417 4
R20  22704880.945 5                 121413070.880 5
> 2026 01 01 01 32 00.0000000  0 16
G01  24428828.930 6  24428832.078 3 128374197.305 6 100031959.016 3
G03  20687138.930 8  20687143.559 7 108711608.881 8  84710392.843 7
G04  22681609.992 7  22681613.074 5 119192631.520 7  92877415.156 5
G16  24667475.773 5  24667478.113 2 129628338.654 5 101009199.475 2
G25  23417493.797 6  23417499.578 5 123059765.674 6  95890762.754 5
G26  21964136.766 7  21964142.695 7 115422352.464 7  89939508.681 7
G28  21384537.047 7  21384540.121 6 112376529.769 7  87566145.444 6
G31  20130942.281 8  20130943.582 8 105788843.365 8  82432879.619 8
G32  23998148.148 7  23998154.453 5 126111112.214 7  98268430.876 5
R02  22034328.555 8  22034329.672 7 117579443.656 8  91450660.034 7
R03  19259768.680 8  19259770.227 8 103099079.765 8  80188164.874 8
R04  21151736.195 8  21151736.633 7 113266675.459 8  88096230.162 7
R12  20884134.867 8  20884136.691 8 111559337.348 8  86768384.362 8
R13  19620015.125 7                 104769785.032 7
R14  22832525.977 7  22832530.086 6 121710235.887 7  94663530.405 6
R20  22701305.195 5  22701303.637 4 121393937.931 5  94417602.70414
> 2026 01 01 01 32 30.0000000  0 17
G01  24444166.742 6  24444170.180 3 128454799.574 6 100094765.969 3
G03  20682604.367 8  20682608.957 7 108687778.942 8  84691824.052 7
G04  22661852.523 7  22661856.078 5 119088807.588 7  92796513.401 5
G16  24640769.602 5  24640770.094 2 129487994.13815 100899840.15212
G25  23430827.742 6  23430832.809 5 123129834.979 6  95945362.184 5
G26  21945498.273 7  21945504.156 7 115324404.331 7  89863185.458 7
G28  21393027.438 7  21393030.133 6 112421143.799 7  87600909.606 6
G31  20127434.430 8  20127435.902 8 105770410.104 8  82418516.022 8
G32  24013460.234 7  24013466.063 5 126191576.504 7  98331130.208 5
R02  22051240.688 7  22051242.434 7 117669693.378 7  91520854.214 7
R03  19256905.859 8  19256907.621 8 103083755.775 8  80176246.210 8
R04  21130632.156 7  21130632.906 7 113153666.975 7  88008334.683 7
R12  20896596.352 8  20896597.180 8 111625901.179 8  86820156.216 8
R13  19610633.773 7                 104719690.938 7
R14  22804837.750 7  22804840.906 6 121562637.003 7  94548731.313 6
R19  23316991.750 5  23316990.492 3 124729993.01315  97012360.40513
R20  22697880.688 4  22697873.523 3 121375610.81414  94403348.26013
> 2026 01 01 01 33 00.0000000  0 17
G01  24459537.586 6  24459540.355 3 128535570.425 6 100157704.272 3
G03  20678192.305 7  20678196.375 7 108664592.831 7  84673756.945 7
G04  22642131.664 7  22642134.805 4 118985172.147 7  92715758.511 4
G16  24614067.594 5  24614068.938 2 129347677.985 5 100790502.880 2
G25  23444245.844 6  23444251.203 6 123200346.041 6  96000305.855 6
G26  21926945.508 7  21926951.133 7 115226908.898 7  89787214.990 7
G28  21401589.539 7  21401592.047 6 112466138.860 7  87635970.682 6
G31  20124033.023 8  20124035.188 8 105752539.464 8  82404590.840 8
G32  24028800.703 6  24028806.742 5 126272191.511 6  98393946.950 5
R02  22068208.766 7  22068211.227 7 117760241.559 7  91591280.471 7
R03  19254156.094 8  19254156.898 8 103069031.637 8  80164794.092 8
R04  21109580.070 7  21109581.234 7 113040936.012 7  87920655.093 7
R12  20909165.711 8  20909167.441 8 111693047.712 8  86872381.259 8
R13  19601400.672 7                 104670383.262 7
R14  22777188.250 7  22777191.395 7 121415252.020 7  94434098.570 7
R19  23331683.719 5  23331684.840 4 124808595.588 5  97073515.67614
R20  22694602.031 5  22694596.047 3 121358089.72615  94389720.91613
> 2026 01 01 01 33 30.0000000  0 17
G01  24474938.203 6  24474942.633 3 128616505.030 6 100220770.159 3
G03  20673902.719 8  20673906.934 7 108642049.393 8  84656190.622 7
G04  22622445.641 6  22622449.285 4 118881724.799 6  92635150.174 4
G16  24587372.289 6  24587373.813 2 129207390.955 6 100681188.347 2
G25  23457745.703 6  23457752.309 5 123271294.253 6  96055590.137 5
G26  21908478.766 7  21908484.676 7 115129867.033 7  89711597.941 7
G28  21410223.695 7  21410226.484 6 112511511.300 7  87671325.810 6
G31  20120739.125 8  20120741.199 8 105735228.938 8  82391102.120 8
G32  24044169.422 7  24044175.727 5 126352954.423 7  98456878.928 5
R02  22085233.586 8  22085234.703 7 117851084.610 8  91661936.095 7
R03  19251517.180 8  19251518.336 8 103054905.961 8  80153807.457 8
R04  21088580.211 7  21088581.223 7 112928483.670 7  87833192.195 7
R12  20921843.305 8  20921845.215 8 111760771.799 8  86925055.556 8
R13  19592314.023 7                 104621860.958 7
R14  22749579.953 7  22749582.324 6 121268081.636 7  94319632.684 6
R19  23346466.289 5  23346465.859 4 124887664.746 5  97135013.921 4
R20  22691474.469 5  22691474.773 5 121341372.817 5  94376718.845 5
> 2026 01 01 01 34 00.0000000  0 16
G01  24490370.078 5  24490373.430 2 128697601.103 5 100283961.898 2
G03  20669734.977 8  20669739.371 7 108620149.968 8  84639126.134 7
G04  22602796.656 6  22602800.090 4 118778467.773 6  92554690.178 4
G16  24560682.695 5  24560684.809 2 129067137.059 5 100571899.662 2
G25  23471330.594 6  23471337.188 5 123342677.619 6  96111213.468 5
G26  21890099.039 7  21890105.430 7 115033282.156 7  89636337.006 7
G28  21418929.602 7  21418931.953 6 112557260.127 7  87706974.228 6
G31  20117551.750 8  20117553.621 8 105718478.771 8  82378050.041 8
G32  24059566.773 6  24059573.094 5 126433865.064 6  98519926.022 5
R02  22102312.273 7  22102314.633 7 117942221.646 7  91732820.353 7
R03  19248990.102 8  19248991.676 8 103041381.212 8  80143288.184 8
R04  21067633.227 7  21067634.402 7 112816313.327 7  87745948.592 7
R12  20934628.555 8  20934631.348 8 111829070.466 8  86978176.730 8
R13  19583374.320 7                 104574125.563 7
R14  22722012.320 7  22722015.168 6 121121130.408 7  94205337.305 6
R19  23361331.969 6                 124967196.847 6
> 2026 01 01 01 34 30.0000000  0 17
G01  24505833.055 5  24505836.535 3 128778857.609 5 100347278.606 3
G03  20665690.570 8  20665695.449 7 108598897.298 8  84622565.610 7
G04  22583184.609 7  22583187.871 4 118675404.749 7  92474381.340 4
G16  24533999.867 5  24534002.813 2 128926920.994 5 100462640.383 2
G25  23484996.203 6  23485002.664 5 123414495.313 6  96167175.278 5
G26  21871807.328 7  21871813.418 7 114937159.055 7  89561435.891 7
G28  21427707.078 7  21427709.543 6 112603385.679 7  87742916.199 6
G31  20114471.352 8  20114473.113 8 105702290.720 8  82365435.968 8
G32  24074991.570 7  24074997.598 5 126514924.523 7  98583089.100 5
R02  22119446.750 8  22119448.984 7 118033653.208 8  91803933.688 7
R03  19246576.813 8  19246577.668 8 103028459.863 8  80133238.239 8
R04  21046740.086 7  21046740.270 7 112704429.645 7  87658927.962 7
R12  20947522.281 8  20947523.902 8 111897942.483 8  87031743.821 8
R13  19574583.203 7                 104527180.408 7
R14  22694486.617 7  22694488.988 6 120974403.787 7  94091216.624 6
R19  23376286.203 6  23376287.609 4 125047190.055 6  97259098.92614
R20  22685679.281 5  22685679.090 4 121310343.30715
> 2026 01 01 01 35 00.0000000  0 17
G01  24521324.742 6  24521329.059 2 128860269.747 6 100410716.563 2
G03  20661769.367 8  20661773.781 7 108578290.013 8  84606507.971 7
G04  22563609.047 6  22563612.262 4 118572535.257 6  92394223.300 4
G06  24707232.695 5                 129837550.59615
G16  24507324.578 6  24507328.832 2 128786743.989 6 100353411.599 2
G25  23498745.469 6  23498750.750 5 123486742.691 6  96223471.925 5
G26  21853603.930 7  21853609.652 7 114841498.508 7  89486895.200 7
G28  21436555.359 7  21436557.973 6 112649884.294 7  87779148.863 6
G31  20111497.297 8  20111499.223 8 105686662.335 8  82353258.000 8
G32  24090444.984 7  24090451.156 5 126596129.835 7  98646365.825 5
R02  22136634.516 8  22136637.086 7 118125375.581 8  91875273.219 7
R03  19244275.875 8  19244276.324 8 103016141.188 8  80123657.039 8
R04  21025900.406 7  21025900.945 7 112592833.369 7  87572130.872 7
R12  20960521.492 8  20960523.465 8 111967382.042 8  87085752.359 8
R13  19565939.883 7                 104481024.229 7
R14  22667003.813 7  22667005.820 6 120827903.103 7  93977271.630 6
R19  23391325.250 5  23391323.488 5 125127637.860 5  97321669.384 5
> 2026 01 01 01 35 30.0000000  0 18
G01  24536847.016 6  24536850.004 2 128941831.984 6 100474271.571 2
G03  20657970.422 8  20657974.980 7 108558326.302 8  84590951.838 7
G04  22544070.391 6  22544073.645 4 118469858.497 6  92314215.463 4
G06  24697125.352 4  24697134.305 2 129784455.725 4 101130641.60212
G16  24480657.914 6  24480661.828 2 128646606.711 6 100244213.731 2
G25  23512574.469 6  23512579.824 5 123559414.469 6  96280099.238 5
G26  21835488.078 7  21835494.148 7 114746300.761 7  89412715.131 7
G28  21445473.766 7  21445476.367 6 112696751.797 7  87815668.985 6
G31  20108629.180 7  20108631.121 8 105671590.597 7  82341513.796 8
G32  24105925.438 7  24105931.309 5 126677477.732 7  98709753.625 5
R02  22153877.391 7  22153880.734 7 118217384.835 7  91946835.884 7
R03  19242086.828 8  19242087.703 8 103004423.865 8  80114543.550 8
R04  21005114.531 7  21005115.063 7 112481525.187 7  87485557.858 7
R12  20973626.055 8  20973627.934 8 112037383.202 8  87140197.702 8
R13  19557443.430 7                 104435655.491 7
R14  22639562.867 7  22639564.770 6 120681628.986 7  93863502.901 6
R19  23406448.906 5  23406447.340 5 125208533.88315  97384588.50115
R20  22680476.555 5  22680487.086 3 121282555.92615  94331036.61713
> 2026 01 01 01 36 00.0000000  0 18
G01  24552395.789 6  24552398.457 3 129023544.854 6 100537943.891 3
G03  20654294.617 7  20654298.984 7 108539010.195 7  84575900.318 7
G04  22524569.266 6  22524572.523 4 118367379.465 6  92234361.673 4
G06  24687129.453 5  24687136.738 3 129731917.131 5 101089702.454 3
G16  24453999.891 6  24454002.629 2 128506515.482 6 100135051.767 2
G25  23526484.094 6  23526489.594 5 123632511.392 6  96337057.838 5
G26  21817461.742 7  21817467.688 7 114651571.934 7  89338900.472 7
G28  21454462.766 7  21454465.418 6 112743989.957 7  87852477.912 6
G31  20105866.875 7  20105869.406 8 105657078.449 7  82330205.617 8
G32  24121432.961 6  24121438.719 5 126758970.706 6  98773254.460 5
R02  22171173.461 7  22171176.930 7 118309682.792 7  92018623.080 7
R03  19240010.750 8  19240011.898 8 102993312.071 8  80105901.041 8
R04  20984382.875 8  20984383.703 7 112370510.811 8  87399213.341 7
R12  20986835.164 8  20986837.379 8 112107945.911 8  87195079.767 8
R13  19549095.961 7                 104391078.180 7
R14  22612166.617 7  22612168.820 6 120535588.643 7  93749915.965 6
R19  23421655.406 5  23421653.988 5 125289877.129 5  97447855.332 5
R20  22678101.211 5                 121269862.772 5
> 2026 01 01 01 36 30.0000000  0 18
G01  24567972.820 6  24567976.844 2 129105404.363 6 100601730.527 2
G03  20650741.563 7  20650746.625 7 108520341.231 7  84561353.062 7
G04  22505105.211 7  22505109.109 4 118265098.699 7  92154662.370 4
G06  24677239.352 5  24677244.230 2 129679934.97815 101049197.00812
G16  24427350.500 6  24427354.180 3 128366472.221 6 100025927.149 3
G25  23540474.164 6  23540480.180 5 123706029.603 6  96394344.709 5
G26  21799524.969 7  21799531.098 7 114557313.698 7  89265452.498 7
G28  21463522.086 7  21463525.133 6 112791596.021 7  87889573.525 6
G31  20103212.219 7  20103214.207 8 105643124.403 7  82319332.342 8
G32  24136967.555 6  24136972.953 5 126840606.873 6  98836866.881 5
R02  22188523.734 7  22188527.363 7 118402266.808 7  92090632.775 7
R03  19238048.070 8  19238049.465 8 102982805.783 8  80097729.459 8
R04  20963708.844 8  20963707.496 7 112259792.401 8  87313099.001 7
R12  21000149.781 8  21000151.047 8 112179065.544 8  87250395.016 8
R13  19540896.094 7                 104347292.393 7
R14  22584813.961 7  22584816.199 6 120389784.392 7  93636512.646 6
R19  23436943.820 6  23436942.383 5 125371662.389 6  97511466.111 5
R20  22675878.672 5  22675886.539 3 121257973.747 5  94311904.37813
> 2026 01 01 01 37 00.0000000  0 18
G01  24583578.219 6  24583580.906 2 129187408.692 6 100665629.972 2
G03  20647312.664 7  20647317.246 7 108502321.124 7  84547311.409 7
G04  22485680.398 6  22485684.230 4 118163018.965 6  92075119.719 4
G06  24667453.430 5
G16  24400710.953 6  24400714.168 3 128226481.485 6  99916843.445 3
G25  23554543.938 6  23554549.746 5 123779967.474 6  96451958.590 5
G26  21781678.719 7  21781684.719 7 114463529.917 7  89192374.229 7
G28  21472651.719 7  21472654.055 6 112839569.403 7  87926955.373 6
G31  20100662.984 7  20100665.117 8 105629729.353 7  82308894.635 8
G32  24152530.133 6  24152535.797 5 126922386.341 6  98900590.983 5
R02  22205929.172 7  22205930.793 7 118495136.629 7  92162864.746 7
R03  19236198.492 8  19236200.250 8 102972906.696 8  80090030.151 8
R04  20943088.188 8  20943087.918 7 112149373.834 8  87227217.865 7
R12  21013567.039 8  21013568.309 8 112250739.804 8  87306141.652 8
R13  19532845.203 7                 104304299.442 7
R14  22557506.422 7  22557509.160 6 120244220.968 7  93523296.668 6
R19  23452313.273 5  23452313.684 5 125453886.505 5  97575418.146 5
R20  22673805.023 5                 121246889.663 5
> 2026 01 01 01 37 30.0000000  0 17
G01  24599210.617 5  24599213.703 3 129269556.798 5 100729641.447 3
G03  20644007.508 8  20644012.324 7 108484952.228 8  84533777.200 7
G04  22466294.102 6  22466297.965 4 118061143.733 6  91995736.474 4
G06  24657775.125 4  24657780.402 3 129577651.59314 100969495.57313
G16  24374082.078 6  24374086.035 3 128086547.964 6  99807804.323 3
G25  23568694.164 6  23568699.137 5 123854324.112 6  96509898.806 5
G26  21763923.984 7  21763929.578 7 114370225.126 7  89119669.196 7
G28  21481850.352 7  21481852.992 6 112887910.347 7  87964623.629 6
G31  20098220.422 8  20098222.715 8 105616894.279 8  82298893.280 8
G32  24168119.836 7  24168125.703 5 127004310.171 7  98964427.557 5
R02  22223386.375 8  22223387.988 7 118588292.370 8  92235319.110 7
R03  19234463.945 8  19234465.117 8 102963618.154 8  80082805.729 8
R04  20922524.078 8  20922524.797 7 112039259.818 8  87141573.629 7
R12  21027088.086 8  21027089.789 8 112322966.963 8  87362318.329 8
R13  19524943.016 7                 104262102.698 7
R14  22530244.445 7  22530247.770 7 120098903.095 7  93410271.664 7
R20  22671880.203 4                 121236612.527 4
> 2026 01 01 01 38 00.0000000  0 18
G01  24614868.234 5  24614872.039 2 129351841.459 5 100793759.314 2
G03  20640825.508 7  20640829.996 7 108468230.779 7  84520747.493 7
G04  22446946.297 7  22446950.172 5 117959470.337 7  91916510.458 5
G06  24648204.469 5  24648207.906 3 129527350.32215 100930299.89713
G16  24347464.922 6  24347468.035 2 127946670.259 6  99698808.705 2
G25  23582922.094 6  23582927.000 5 123929092.454 6  96568159.816 5
G26  21746259.250 7  21746265.086 7 114277397.658 7  89047336.115 7
G28  21491117.602 7  21491120.539 6 112936612.806 7  88002573.575 6
G31  20095883.992 8  20095885.938 8 105604614.438 8  82289324.565 8
G32  24183735.711 6  24183742.023 5 127086373.118 6  99028372.521 5
R02  22240895.711 7  22240898.727 7 118681728.144 7  92307991.292 7
R03  19232841.758 8  19232843.184 8 102954936.256 8  80076053.120 8
R04  20902018.164 8  20902018.637 7 111929448.758 8  87056165.017 7
R12  21040711.766 8  21040712.656 8 112395738.998 8  87418918.764 8
R13  19517189.594 7                 104220698.313 7
R14  22503029.383 7  22503031.977 6 119953830.487 7  93297437.452 6
R19  23483301.469 5  23483298.523 5 125619635.66215  97704334.00515
R20  22670112.063 6  22670112.719 5 121227137.134 6  94287879.76215
> 2026 01 01 01 38 30.0000000  0 17
G01  24630552.516 5  24630555.941 2 129434260.350 5 100857981.866 2
G03  20637767.172 7  20637771.570 7 108452157.972 7  84508223.212 7
G04  22427637.789 7  22427641.137 5 117858001.083 7  91837443.516 5
G06  24638736.492 5  24638739.543 2 129477610.610 5 100891541.646 2
G16  24320857.477 6  24320861.129 3 127806852.332 6  99589859.672 3
G25  23597227.727 6  23597233.172 5 124004270.402 6  96626739.998 5
G26  21728685.953 7  21728691.766 7 114185050.910 7  88975377.610 7
G28  21500454.320 7  21500456.973 6 112985675.820 7  88040804.460 6
G31  20093652.750 8  20093654.914 8 105592890.016 8  82280188.653 8
G32  24199378.469 7  24199384.660 5 127168574.972 7  99092425.710 5
R02  22258457.938 7  22258460.887 7 118775442.876 7  92380880.409 7
R03  19231334.008 8  19231334.773 8 102946862.979 8  80069773.896 8
R04  20881569.617 8  20881569.418 7 111819944.125 8  86970994.742 7
R12  21054435.539 8  21054437.566 8 112469053.308 8  87475940.998 8
R13  19509583.898 7                 104180087.008 7
R14  22475860.828 7  22475863.703 6 119809006.959 7  93184796.949 6
R20  22668489.164 5  22668491.246 4 121218464.090 5  94281133.945 4
> 2026 01 01 01 39 00.0000000  0 17
G01  24646261.570 6  24646264.273 3 129516810.104 6 100922306.273 3
G03  20634832.352 8  20634836.566 7 108436733.596 8  84496204.214 7
G04  22408367.391 7  22408371.281 5 117756737.036 7  91758536.453 5
G06  24629381.500 5  24629383.762 2 129428432.97815 100853221.48012
G16  24294262.906 5  24294267.113 2 127667096.526 5  99480959.061 2
G25  23611611.609 6  23611616.828 5 124079854.577 6  96685636.714 5
G26  21711204.648 7  21711210.855 7 114093186.855 7  88903795.243 7
G28  21509858.961 7  21509861.336 6 113035097.074 7  88079314.513 6
G31  20091527.391 8  20091529.324 8 105581719.753 8  82271484.534 8
G32  24215047.453 6  24215053.254 5 127250914.149 6  99156585.954 5
R02  22276071.906 7  22276074.766 7 118869434.437 7  92453984.836 7
R03  19229938.813 8  19229940.457 8 102939398.490 8  80063968.162 8
R04  20861178.023 8  20861177.863 7 111710748.462 8  86886064.757 7
R12  21068261.070 8  21068262.859 8 112542905.481 8  87533381.560 8
R13  19502127.594 7                 104140269.450 7
R14  22448739.930 7  22448742.352 7 119664434.948 7  93072352.071 7
R20  22667015.305 4  22667016.441 4 121210592.210 4  94274998.31414
> 2026 01 01 01 39 30.0000000  0 16
G01  24661992.672 5  24661997.758 2 129599488.831 5 100986731.238 2
G03  20632020.336 7  20632024.953 7 108421959.216 7  84484691.698 7
G04  22389137.328 7  22389141.055 5 117655680.815 7  91679791.356 5
G16  24267681.070 6  24267685.281 2 127527407.115 6  99372110.122 2
G25  23626071.438 6  23626077.020 5 124155843.185 6  96744848.585 5
G26  21693816.406 7  21693822.043 7 114001809.278 7  88832591.938 7
G28  21519331.336 7  21519334.262 6 113084875.911 7  88118103.186 6
G31  20089507.289 8  20089509.438 8 105571104.307 8  82263212.757 8
G32  24230742.602 6  24230747.891 5 127333390.918 6  99220853.378 5
R02  22293738.453 7  22293740.578 7 118963702.342 7  92527304.196 7
R03  19228659.023 8  19228660.426 8 102932544.661 8  80058637.394 8
R04  20840844.797 8  20840844.867 7 111601865.396 8  86801377.922 7
R12  21082186.945 8  21082188.121 8 112617293.009 8  87591238.489 8
R13  19494819.773 7                 104101246.731 7
R14  22421666.914 7  22421669.500 7 119520119.244 7  92960106.553 7
R20  22665694.969 5  22665697.102 4 121203522.30715  94269499.46014
> 2026 01 01 01 40 00.0000000  0 15
G01  24677753.039 5  24677755.297 2 129682295.729 5 101051255.998 2
G03  20629333.383 7  20629337.660 7 108407837.388 7  84473687.671 7
G04  22369947.297 7  22369951.008 5 117554836.296 7  91601211.238 5
G16  24241112.867 6  24241117.289 3 127387789.367 6  99263317.053 3
G25  23640608.539 6  23640614.457 5 124232235.795 6  96804375.224 5
G26  21676520.813 7  21676527.250 7 113910922.929 7  88761771.399 7
G28  21528872.203 7  21528875.199 6 113135012.821 7  88157170.903 6
G31  20087593.070 8  20087595.141 8 105561045.066 8  82255374.381 8
G32  24246463.469 6  24246469.855 5 127416006.582 6  99285228.979 5
R02  22311454.688 7  22311459.000 7 119058247.142 7  92600838.922 7
R03  19227493.039 8  19227494.492 8 102926304.546 8  80053783.970 8
R04  20820570.586 8  20820571.078 7 111493300.201 8  86716938.335 7
R12  21096212.203 8  21096213.512 8 112692214.519 8  87649510.750 8
R13  19487661.789 7                 104063021.887 7
R14  22394642.109 7  22394645.184 7 119376065.318 7  92848064.660 7
> 2026 01 01 01 40 30.0000000  0 15
G01  24693531.531 5  24693536.902 2 129765224.778 5 101115876.101 2
G03  20626769.781 7  20626774.094 7 108394365.579 7  84463190.142 7
G04  22350796.922 6  22350800.605 5 117454202.194 6  91522795.061 5
G16  24214557.563 6  24214562.039 3 127248243.561 6  99154579.984 3
G25  23655220.773 5  23655227.047 5 124309026.474 5  96864212.060 5
G26  21659319.828 7  21659325.441 7 113820527.491 7  88691333.399 7
G28  21538480.555 7  21538483.305 6 113185503.228 7  88196514.049 6
G31  20085784.242 8  20085785.965 8 105551538.854 8  82247966.938 8
G32  24262210.953 6  24262217.816 5 127498757.117 6  99349709.719 5
R02  22329224.969 7  22329227.344 7 119153064.265 7  92674585.460 7
R03  19226441.516 8  19226443.176 8 102920675.957 8  80049406.159 8
R04  20800356.008 8  20800356.230 7 111385052.686 8  86632745.817 7
R12  21110336.469 8  21110337.430 8 112767663.514 8  87708193.292 8
R13  19480651.000 7                 104025592.397 7
R14  22367666.883 7  22367670.250 7 119232273.999 7  92736226.970 7
> 2026 01 01 01 41 00.0000000  0 16
G01  24709337.016 5  24709340.324 2 129848272.477 5 101180588.508 2
G03  20624329.820 8  20624334.246 7 108381543.191 8  84453198.663 7
G04  22331687.164 7  22331690.582 5 117353779.141 7  91444543.342 5
G16  24188016.914 6  24188021.582 3 127108771.603 6  99045900.533 3
G25  23669909.547 6  23669915.215 5 124386211.620 6  96924356.280 5
G26  21642211.305 7  21642217.523 7 113730624.610 7  88621279.220 7
G28  21548155.539 7  21548158.227 6 113236344.457 7  88236130.563 6
G31  20084080.234 8  20084081.852 8 105542583.873 8  82240989.014 8
G32  24277983.500 6  24277990.066 5 127581640.792 6  99414294.223 5
R02  22347044.125 7  22347046.191 7 119248151.033 7  92748541.747 7
R03  19225504.148 8  19225505.668 8 102915658.477 8  80045503.668 8
R04  20780200.992 8  20780201.500 7 111277124.868 8  86548801.970 7
R12  21124558.570 8  21124560.023 8 112843635.510 8  87767282.576 8
R13  19473791.328 7                 103988958.001 7
R14  22340742.773 7  22340744.930 7 119088747.473 7  92624595.259 7
R19  23578138.648 4  23578133.273 4 126127299.83214
> 2026 01 01 01 41 30.0000000  0 15
G01  24725161.813 5  24725164.672 2 129931434.848 5 101245390.369 2
G03  20622012.953 7  20622017.813 8 108369369.803 7  84443712.893 8
G04  22312618.000 7  22312621.133 5 117253568.115 7  91366456.826 5
G16  24161490.617 6  24161495.461 3 126969376.023 6  98937280.624 3
G25  23684671.469 6  23684677.223 5 124463787.488 6  96984805.020 5
G26  21625197.500 7  21625203.637 7 113641216.068 7  88551610.231 7
G28  21557895.977 7  21557898.988 6 113287534.000 7  88276018.486 6
G31  20082481.047 8  20082482.402 8 105534178.595 8  82234439.430 8
G32  24293780.578 6  24293787.543 5 127664655.964 6  99478981.156 5
R02  22364913.898 7  22364915.953 7 119343505.063 7  92822705.845 7
R03  19224680.930 8  19224682.652 8 102911252.467 8  80042076.747 8
R04  20760107.172 8  20760107.184 7 111169518.446 8  86465108.062 7
R12  21138877.352 8  21138879.109 8 112920125.983 8  87826775.174 8
R13  19467080.227 7                 103953117.864 7
R14  22313867.039 7  22313870.289 7 118945488.364 7  92513171.538 7
> 2026 01 01 01 42 00.0000000  0 15
G01  24741009.617 6  24741011.520 2 130014710.19516 101310280.21212
G03  20619820.211 8  20619824.512 7 108357846.775 8  84434733.903 7
G04  22293589.734 7  22293592.645 5 117153571.815 7  91288537.629 5
G16  24134981.766 6  24134984.391 3 126830060.885 6  98828723.395 3
G25  23699507.234 6  23699512.762 4 124541752.534 6  97045556.968 4
G26  21608278.531 7  21608284.465 7 113552305.510 7  88482329.282 7
G28  21567703.328 7  21567706.289 6 113339071.285 7  88316177.396 6
G31  20080986.516 8  20080987.574 8 105526323.499 8  82228318.575 8
G32  24309602.594 6  24309610.578 5 127747802.719 6  99543770.590 5
R02  22382832.414 7  22382835.465 7 119439125.996 7  92897077.525 7
R03  19223972.930 8  19223974.230 8 102907459.262 8  80039126.468 8
R04  20740072.750 8  20740073.750 7 111062237.713 8  86381667.510 7
R12  21153293.719 8  21153294.945 7 112997132.617 8  87886669.208 7
R13  19460516.758 7                 103918073.364 7
R14  22287042.664 7  22287045.602 7 118802501.046 7  92401959.205 7
> 2026 01 01 01 42 30.0000000  0 16
G01  24756875.766 5  24756880.438 2 130098095.815 5 101375256.018 2
G03  20617751.453 7  20617756.285 8 108346974.586 7  84426262.054 8
G04  22274601.508 7  22274605.512 5 117053792.046 7  91210787.174 5
G06  24566891.984 5                 129099875.70415
G16  24108486.094 6  24108489.379 3 126690829.660 6  98720231.507 3
G25  23714417.859 6  23714421.988 4 124620104.066 6  97106610.054 4
G26  21591454.961 7  21591460.563 7 113463895.686 7  88413438.517 7
G28  21577576.180 7  21577579.180 6 113390954.820 7  88356606.096 6
G31  20079596.078 8  20079597.566 8 105519018.194 8  82222626.115 8
G32  24325450.500 6  24325457.715 5 127831080.308 6  99608661.988 5
R02  22400801.781 7  22400804.258 7 119535012.145 7  92971655.506 7
R03  19223379.250 8  19223380.645 8 102904280.801 8  80036654.318 8
R04  20720100.680 8  20720100.938 8 110955285.722 8  86298482.641 8
R12  21167804.383 8  21167806.832 7 113074651.627 8  87946961.736 7
R13  19454103.633 7                 103883825.527 7
R14  22260269.922 7  22260273.648 7 118659788.867 7  92290960.867 7
> 2026 01 01 01 43 00.0000000  0 18
G01  24772763.961 5  24772767.875 2 130181588.956 5 101440315.492 2
G03  20615806.703 7  20615811.230 8 108336753.801 7  84418297.804 8
G04  22255656.055 7  22255659.422 5 116954230.822 7  91133207.011 5
G06  24558397.586 5
G16  24082008.102 6  24082011.496 3 126551685.697 6  98611807.664 3
G25  23729401.344 6  23729405.145 5 124698839.456 6  97167962.290 5
G26  21574726.570 7  21574732.367 7 113375989.443 7  88344940.141 7
G28  21587515.047 7  21587518.277 6 113443183.156 7  88397303.460 6
G31  20078310.344 8  20078312.117 8 105512262.191 8  82217361.689 8
G32  24341322.555 6  24341329.148 5 127914488.156 6  99673654.907 5
R02  22418820.617 7  22418823.320 7 119631162.081 7  93046438.648 7
R03  19222900.008 8  19222901.633 8 102901716.707 8  80034660.007 8
R04  20700189.063 7  20700190.387 8 110848665.729 7  86215555.986 8
R12  21182412.664 8  21182413.824 8 113152679.868 8  88007650.338 8
R13  19447838.578 7                 103850374.781 7
R14  22233549.945 7  22233553.348 7 118517356.131 7  92180179.889 7
R20  22660629.859 5                 121176565.75315
R21  23863491.484 6  23863491.891 5 127698363.41616  99320949.14615
> 2026 01 01 01 43 30.0000000  0 17
G01  24788672.367 5  24788675.461 2 130265181.403 5 101505452.440 2
G03  20613984.484 7  20613989.012 8 108327179.116 7  84410836.997 8
G04  22236750.852 7  22236754.082 5 116854884.271 7  91055794.107 5
G16  24055544.805 6  24055549.188 3 126412626.795 6  98503450.110 3
G25  23744454.398 6  23744459.230 4 124777950.577 6  97229607.305 4
G26  21558094.039 7  21558099.906 7 113288583.711 7  88276831.789 7
G28  21597518.500 7  21597520.578 6 113495749.118 7  88438263.908 6
G31  20077128.055 8  20077129.852 8 105506049.330 8  82212520.488 8
G32  24357218.578 6  24357225.875 5 127998019.831 6  99738744.286 5
R02  22436887.195 7  22436890.055 7 119727568.802 7  93121421.506 7
R03  19222534.945 8  19222536.488 8 102899762.977 8  80033140.420 8
R04  20680340.328 8  20680341.023 8 110742375.031 8  86132885.454 8
R12  21197113.250 8  21197114.406 8 113231208.133 8  88068727.858 8
R13  19441724.164 7                 103817715.622 7
R14  22206882.367 8  22206885.043 7 118375200.196 8  92069614.160 7
R20  22660497.016 5  22660503.199 4 121175876.922 5  94247889.12814
R21  23846293.711 5  23846293.656 4 127606334.653 5  99249371.163 4
> 2026 01 01 01 44 00.0000000  0 17
G01  24804598.188 5  24804601.129 2 130348872.400 5 101570666.182 2
G03  20612285.797 7  20612290.590 8 108318253.049 7  84403881.602 8
G04  22217887.719 7  22217890.766 5 116755756.345 7  90978551.578 5
G16  24029100.734 6  24029104.027 3 126273658.196 6  98395162.904 3
G25  23759580.938 5  23759585.566 4 124857436.728 5  97291544.526 4
G26  21541556.977 7  21541563.445 7 113201683.389 7  88209117.246 7
G28  21607585.523 7  21607588.246 6 113548653.285 7  88479487.913 6
G31  20076049.227 8  20076051.234 8 105500381.366 8  82208103.880 8
G32  24373137.742 6  24373145.430 5 128081676.638 6  99803931.212 5
R02  22455002.563 7  22455004.855 7 119824232.688 7  93196604.404 7
R03  19222284.609 8  19222286.133 8 102898422.508 8  80032097.812 8
R04  20660554.344 8  20660554.445 8 110636418.873 8  86050475.111 8
R12  21211907.109 8  21211908.406 8 113310235.034 8  88130193.189 8
R13  19435756.883 7                 103785850.758 7
R14  22180266.977 7  22180270.168 7 118233326.906 7  91959268.290 7
R19  23675645.438 5  23675643.414 5 126648705.96615  98504565.92615
R20  22660516.961 5  22660516.992 4 121175980.084 5
> 2026 01 01 01 44 30.0000000  0 18
G01  24820541.391 5  24820546.441 2 130432663.645 5 101635958.087 2
G03  20610712.086 7  20610716.582 8 108309980.308 7  84397435.312 8
G04  22199067.617 7  22199070.008 5 116656853.325 7  90901484.292 5
G16  24002675.469 6  24002678.051 3 126134787.683 6  98286952.192 3
G25  23774777.891 5  23774783.934 4 124937299.823 5  97353775.438 4
G26  21525118.383 7  21525124.449 7 113115295.443 7  88141801.974 7
G28  21617718.172 7  21617720.426 6 113601898.479 7  88520977.658 6
G31  20075075.438 8  20075077.109 8 105495261.959 8  82204114.719 8
G32  24389081.336 6  24389089.668 5 128165462.368 6  99869218.503 5
R02  22473166.070 7  22473168.645 7 119921156.891 7  93271989.741 7
R03  19222149.625 8  19222150.973 8 102897700.728 8  80031536.414 8
R04  20640831.563 8  20640831.707 8 110530804.398 8  85968330.524 8
R12  21226794.469 8  21226795.988 8 113389761.742 8  88192047.306 8
R13  19429938.867 7                 103754785.095 7
R14  22153706.344 7  22153709.645 7 118091743.968 7  91849148.284 7
R19  23692143.797 5  23692143.578 5 126736964.828 5  98573211.734 5
R20  22660682.867 4  22660689.613 4 121176878.688 4  94248671.27214
R21  23812242.516 5  23812245.914 5 127424116.53515  99107638.99415
> 2026 01 01 01 45 00.0000000  0 17
G01  24836505.992 6  24836508.645 2 130516550.28216 101701324.28912
G03  20609261.633 7  20609266.195 8 108302358.956 7  84391496.569 8
G04  22180289.094 7  22180292.148 5 116558174.734 7  90824591.894 5
G16  23976267.016 6  23976270.758 3 125996015.980 6  98178818.449 3
G25  23790046.844 6  23790051.566 4 125017534.695 6  97416296.081 4
G26  21508776.805 7  21508782.859 7 113029420.257 7  88074886.253 7
G28  21627914.508 7  21627916.742 6 113655480.985 7  88562730.223 6
G31  20074204.617 8  20074206.645 8 105490688.209 8  82200550.755 8
G32  24405049.180 6  24405057.582 4 128249373.836 6  99934603.772 4
R02  22491376.836 7  22491380.324 7 120018337.407 7  93347574.440 7
R03  19222129.359 8  19222131.293 8 102897595.962 8  80031454.916 8
R04  20621172.125 8  20621172.996 8 110425532.853 8  85886452.653 8
R12  21241774.883 8  21241776.414 7 113469782.371 8  88254285.521 7
R13  19424270.156 7                 103724516.376 7
R14  22127200.398 7  22127203.559 7 117950453.174 7  91739255.453 7
R19  23708712.055 5  23708709.051 4 126825590.840 5  98642143.086 4
R20  22661002.750 5                 121178569.729 5
> 2026 01 01 01 45 30.0000000  0 15
G03  20607934.961 7  20607939.547 8 108295387.199 7  84386064.027 8
G04  22161553.797 7  22161556.883 5 116459720.375 7  90747874.217 5
G16  23949879.000 6  23949882.113 3 125857344.548 6  98070762.848 3
G25  23805385.523 5  23805390.656 4 125098136.728 5  97479102.817 4
G26  21492532.719 7  21492539.000 7 112944058.392 7  88008370.524 7
G28  21638174.109 7  21638176.781 6 113709397.099 7  88604742.746 6
G31  20073437.625 8  20073439.477 8 105486657.317 8  82197409.783 8
G32  24421041.117 6  24421048.387 4 128333408.232 6 100000084.902 4
R02  22509636.445 7  22509638.961 7 120115770.811 7  93423355.819 7
R03  19222225.773 8  19222226.809 8 102898106.509 8  80031851.990 8
R04  20601578.336 8  20601578.168 8 110320605.233 8  85804842.260 8
R12  21256845.438 8  21256847.426 7 113550291.176 8  88316903.469 7
R13  19418750.469 7                 103695042.913 7
R14  22100749.805 7  22100753.047 7 117809455.603 7  91629590.686 7
R20  22661468.367 4  22661469.684 4 121181050.15114  94251925.41814
> 2026 01 01 01 46 00.0000000  0 17
G03  20606732.344 7  20606736.637 8 108289068.864 7  84381140.637 8
G04  22142862.383 7  22142864.883 5 116361495.685 7  90671335.493 5
G16  23923511.344 6  23923514.574 3 125718780.329 6  97962790.809 3
G25  23820792.359 5  23820799.203 4 125179106.830 5  97542196.323 4
G26  21476387.539 7  21476393.859 7 112859216.021 7  87942259.572 7
G28  21648498.211 7  21648500.570 6 113763648.925 7  88647016.863 6
G29  25037890.914 6  25037894.535 4 131575019.03316 102526038.82914
G31  20072774.492 7  20072776.559 8 105483172.508 7  82194694.343 8
G32  24437056.523 6  24437063.496 5 128417568.451 6 100065664.004 5
R02  22527943.398 7  22527946.430 7 120213459.197 7  93499335.530 7
R03  19222436.734 8  19222438.383 8 102899237.251 8  80032731.446 8
R04  20582048.641 8  20582049.543 8 110216027.911 8  85723504.341 8
R12  21272009.203 8  21272010.305 7 113631288.583 8  88379901.427 7
R13  19413380.773 7                 103666368.416 7
R14  22074355.531 7  22074358.848 7 117668758.729 7  91520159.794 7
R19  23742058.758 5                 127003927.27315
R20  22662077.930 5  22662090.527 3 121184323.27015  94254511.04413
> 2026 01 01 01 46 30.0000000  0 17
G03  20605653.930 8  20605658.652 8 108283401.682 8  84376724.630 8
G04  22124214.383 7  22124217.148 5 116263499.925 7  90594975.136 5
G16  23897164.141 6  23897167.027 3 125580324.118 6  97854902.920 3
G25  23836270.234 5  23836276.586 4 125260439.756 5  97605572.566 4
G26  21460342.102 7  21460347.773 7 112774893.201 7  87876553.464 7
G28  21658884.969 7  21658888.063 6 113818232.311 7  88689549.333 6
G29  25023065.492 6  25023071.578 4 131497113.882 6 102465333.521 4
G31  20072214.719 8  20072216.727 8 105480230.555 8  82192401.896 8
G32  24453095.734 6  24453103.016 5 128501851.059 6 100131338.555 5
R02  22546296.617 7  22546299.961 7 120311398.538 7  93575510.401 7
R03  19222763.164 8  19222765.363 8 102900986.041 8  80034091.605 8
R04  20562586.031 8  20562586.371 8 110111801.744 8  85642439.568 8
R12  21287262.102 8  21287263.906 7 113712768.308 8  88443274.527 7
R13  19408160.063 7                 103638490.885 7
R14  22048017.078 7  22048020.777 7 117528363.019 7  91410963.160 7
R20  22662838.734 5  22662838.715 4 121188385.321 5  94257622.98414
R21  23745532.078 5  23745536.082 5 127067194.23415  98830006.32315
> 2026 01 01 01 47 00.0000000  0 18
G03  20604700.383 7  20604704.578 8 108278388.139 7  84372817.959 8
G04  22105610.641 7  22105613.691 5 116165737.292 7  90518796.479 5
G16  23870838.023 6  23870840.781 3 125441981.647 6  97747103.659 3
G25  23851815.531 5  23851821.172 3 125342135.155 5  97669231.235 3
G26  21444395.703 7  21444401.676 7 112691094.753 7  87811255.980 7
G28  21669334.836 7  21669338.008 6 113873148.071 7  88732340.805 6
G29  25008317.773 5  25008322.402 4 131419612.954 5 102404943.204 4
G31  20071757.961 8  20071760.441 8 105477833.017 8  82190533.669 8
G32  24469157.852 6  24469164.680 4 128586257.683 6 100197109.667 4
R02  22564698.875 7  22564701.566 7 120409589.349 7  93651880.890 7
R03  19223206.422 8  19223207.801 8 102903355.992 8  80035934.877 8
R04  20543188.141 8  20543188.852 7 110007932.006 8  85561651.974 7
R12  21302605.156 8  21302607.148 7 113794729.334 8  88507021.968 7
R13  19403089.469 7                 103611412.274 7
R14  22021737.438 8  22021740.621 7 117388274.590 8  91302005.497 7
R19  23775653.938 4  23775655.762 4 127183677.41114  98920677.96014
R20  22663747.211 5  22663745.777 5 121193238.17715  94261397.06415
R21  23729151.172 6  23729153.184 4 126979532.189 6  98761824.656 4
> 2026 01 01 01 47 30.0000000  0 17
G03  20603869.750 7  20603874.297 8 108274024.129 7  84369417.415 8
G04  22087050.797 7  22087053.898 5 116068205.355 7  90442797.580 5
G16  23844532.234 6  23844536.871 3 125303751.727 6  97639392.015 3
G25  23867428.938 5  23867435.188 3 125424186.040 5  97733166.975 3
G26  21428549.023 7  21428554.688 7 112607819.056 7  87746365.809 7
G28  21679847.180 7  21679850.664 6 113928390.404 7  88775386.754 6
G29  24993646.625 6  24993651.414 4 131342514.219 6 102344866.309 4
G31  20071405.047 8  20071406.934 8 105475975.077 8  82189085.916 8
G32  24485242.164 6  24485249.887 4 128670783.287 6 100262973.476 4
R02  22583144.500 7  22583148.219 6 120508025.859 7  93728442.451 6
R03  19223763.930 8  19223766.031 8 102906343.770 8  80038258.680 8
R04  20523857.492 8  20523858.277 7 109904417.676 8  85481140.841 7
R12  21318037.961 8  21318039.328 7 113877163.880 8  88571137.698 7
R13  19398166.711 7                 103585128.742 7
R14  21995514.141 8  21995517.930 7 117248492.885 8  91193286.404 7
R20  22664802.594 4  22664800.402 3 121198876.01014  94265781.89513
R21  23712889.148 6  23712891.781 5 126892505.792 6  98694137.399 5
> 2026 01 01 01 48 00.0000000  0 16
G03  20603162.766 8  20603167.148 8 108270309.170 8  84366522.638 8
G04  22068535.313 7  22068538.027 5 115970905.326 7  90366979.371 5
G16  23818250.891 6  23818254.520 3 125165637.014 6  97531770.270 3
G25  23883111.664 6  23883116.828 4 125506589.144 6  97797377.086 4
G26  21412802.172 7  21412807.855 7 112525067.834 7  87681884.345 7
G28  21690421.602 7  21690424.602 6 113983957.087 7  88818685.434 6
G29  24979053.242 6  24979057.461 4 131265820.318 6 102285104.844 4
G31  20071154.016 8  20071155.836 8 105474655.302 8  82188057.511 8
G32  24501349.977 6  24501357.406 4 128755426.393 6 100328928.862 4
R02  22601638.148 7  22601641.301 6 120606705.976 7  93805193.478 6
R03  19224437.438 8  19224439.480 8 102909948.891 8  80041062.655 8
R04  20504593.836 8  20504594.785 8 109801260.922 8  85400907.801 8
R12  21333557.328 8  21333558.723 7 113960067.471 8  88635618.237 7
R13  19393393.961 7                 103559639.517 7
R14  21969349.805 7  21969352.762 7 117109020.282 7  91084807.728 7
R21  23696747.070 6  23696746.313 5 126806117.761 6  98626946.621 5
> 2026 01 01 01 48 30.0000000  0 17
G03  20602579.914 8  20602584.273 8 108267245.101 8  84364135.029 8
G04  22050064.617 7  22050067.891 5 115873840.814 7  90291344.697 5
G16  23791991.711 6  23791995.133 3 125027642.792 6  97424242.305 3
G25  23898858.898 6  23898865.383 4 125589343.381 6  97861860.883 4
G26  21397155.344 7  21397161.344 7 112442845.500 7  87617814.981 7
G28  21701057.344 7  21701060.387 6 114039848.323 7  88862236.997 6
G29  24964535.953 6  24964540.438 4 131189535.651 6 102225662.256 4
G31  20071005.070 8  20071007.367 8 105473874.822 8  82187449.342 8
G32  24517479.961 6  24517486.980 4 128840187.892 6 100394976.525 4
R02  22620176.180 7  22620180.059 6 120705629.929 7  93882134.177 6
R03  19225227.477 8  19225228.883 8 102914174.274 8  80044349.043 8
R04  20485397.852 8  20485398.539 8 109698466.797 8  85320956.812 8
R12  21349164.047 8  21349165.461 7 114043438.637 8  88700462.461 7
R13  19388770.422 7                 103534946.702 7
R14  21943244.078 7  21943247.578 7 116969862.345 7  90976573.766 7
R20  22667348.977 5  22667347.109 5 121212501.83915  94276401.88115
R21  23680722.922 6  23680722.578 5 126720373.778 6  98560257.114 5
> 2026 01 01 01 49 00.0000000  0 16
G03  20602120.898 8  20602125.031 8 108264832.651 8  84362255.186 8
G04  22031639.070 7  22031642.488 5 115777014.262 7  90215895.441 5
G16  23765755.258 6  23765759.008 3 124889772.716 6  97316811.141 3
G25  23914673.164 6  23914679.000 4 125672446.712 6  97926616.692 4
G26  21381610.469 7  21381615.992 7 112361155.033 7  87554160.071 7
G28  21711754.586 7  21711757.414 6 114096063.149 7  88906040.729 6
G29  24950098.031 6  24950102.059 4 131113663.690 6 102166541.325 4
G31  20070959.219 8  20070961.457 8 105473633.377 8  82187261.184 8
G32  24533631.211 6  24533639.109 4 128925067.779 6 100461116.409 4
R02  22638760.609 7  22638763.898 7 120804796.388 7  93959263.447 7
R03  19226132.344 8  19226134.254 8 102919020.740 8  80048118.498 8
R04  20466270.078 8  20466271.172 8 109596039.024 8  85241290.792 8
R12  21364859.000 8  21364860.945 7 114127274.256 8  88765667.912 7
R13  19384295.063 7                 103511050.309 7
R14  21917198.938 8  21917201.098 7 116831023.176 8  90868587.729 7
R21  23664820.344 6  23664822.473 6 126635277.748 6  98494071.380 6
> 2026 01 01 01 49 30.0000000  0 16
G03  20601785.156 8  20601790.082 8 108263070.333 8  84360881.937 8
G04  22013258.609 7  22013261.875 5 115680425.993 7  90140631.854 5
G16  23739543.727 6  23739546.781 3 124752028.838 6  97209478.270 3
G25  23930552.055 6  23930557.547 3 125755894.991 6  97991641.270 3
G26  21366166.352 7  21366172.305 7 112279997.433 7  87490920.368 7
G28  21722512.930 7  21722515.395 6 114152598.511 7  88950094.217 6
G29  24935738.672 6  24935742.727 4 131038205.524 6 102107742.819 4
G31  20071015.445 8  20071017.680 8 105473928.707 8  82187491.301 8
G32  24549806.344 6  24549814.168 4 129010063.559 6 100527346.556 4
R02  22657388.523 7  22657392.082 6 120904202.695 7  94036579.290 6
R03  19227153.961 8  19227155.383 8 102924487.109 8  80052370.093 8
R04  20447211.320 8  20447211.984 8 109493978.880 8  85161910.689 8
R12  21380639.133 8  21380640.770 7 114211569.568 8  88831230.915 7
R13  19379968.523 7                 103487949.422 7
R14  21891212.453 7  21891215.578 7 116692504.337 7  90760850.875 7
R21  23649040.836 6  23649038.289 5 126550831.874 6  98428391.172 5
> 2026 01 01 01 50 00.0000000  0 18
G03  20601573.594 7  20601578.230 8 108261958.644 7  84360015.662 8
G04  21994924.906 7  21994927.414 5 115584078.341 7  90065555.754 5
G06  24450990.797 4
G16  23713356.477 6  23713359.727 3 124614414.951 6  97102246.701 3
G25  23946496.492 6  23946501.012 3 125839685.905 6  98056932.830 3
G26  21350824.430 7  21350830.637 7 112199375.553 7  87428098.114 7
G28  21733332.039 7  21733334.391 6 114209453.271 7  88994396.601 6
G29  24921458.383 5  24921462.688 4 130963164.589 5 102049269.486 4
G31  20071173.641 7  20071175.957 8 105474760.772 7  82188139.649 8
G32  24566003.055 6  24566010.789 4 129095174.948 6 100593666.822 4
R02  22676063.273 7  22676065.676 6 121003847.538 7  94114080.627 6
R03  19228291.188 8  19228292.516 8 102930574.953 8  80057105.067 8
R04  20428221.539 7  20428222.117 8 109392290.044 7  85082819.372 8
R12  21396504.469 8  21396506.254 7 114296321.317 8  88897148.902 7
R13  19375791.969 7                 103465643.812 7
R14  21865287.531 8  21865290.402 7 116554310.262 8  90653366.598 7
R19  23877986.984 4  23877982.199 4 127731131.76014  99346407.53214
R21  23633381.133 5  23633384.215 6 126467039.984 5  98363219.754 6
> 2026 01 01 01 50 30.0000000  0 15
G03  20601486.188 8  20601490.668 8 108261497.279 8  84359656.146 8
G04  21976636.531 7  21976639.926 5 115487972.885 7  89990668.392 5
G16  23687194.875 6  23687197.887 3 124476934.087 6  96995118.759 3
G25  23962506.453 5  23962511.500 3 125923816.411 5  98122489.073 3
G26  21335584.695 7  21335591.129 7 112119291.568 7  87365695.009 7
G28  21744211.258 7  21744213.750 6 114266625.621 7  89038946.452 6
G29  24907259.039 6  24907264.262 4 130888543.508 6 101991123.282 4
G31  20071433.695 8  20071436.098 8 105476128.398 8  82189205.319 8
G32  24582219.883 6  24582228.914 4 129180400.915 6 100660076.312 4
R02  22694779.883 7  22694783.789 6 121103729.023 7  94191766.033 6
R03  19229544.609 8  19229545.938 8 102937284.502 8  80062323.578 8
R04  20409301.820 8  20409302.379 8 109290975.562 8  85004019.216 8
R12  21412454.555 8  21412456.867 7 114381525.608 8  88963418.860 7
R13  19371763.680 7                 103444133.379 7
R14  21839424.133 7  21839427.523 7 116416443.780 7  90546137.107 7
> 2026 01 01 01 51 00.0000000  0 17
G03  20601522.438 8  20601527.203 8 108261689.144 8  84359805.640 8
G04  21958395.070 7  21958398.430 5 115392114.373 7  89915973.455 5
G16  23661059.914 6  23661063.121 3 124339592.146 6  96888099.063 3
G25  23978581.305 5  23978586.723 3 126008286.702 5  98188310.066 3
G26  21320449.297 7  21320455.055 7 112039750.820 7  87303715.185 7
G28  21755151.609 7  21755154.621 6 114324116.929 7  89083744.829 6
G29  24893138.445 6  24893143.730 4 130814347.571 6 101933308.402 4
G31  20071796.914 8  20071798.934 8 105478033.904 8  82190690.114 8
G32  24598461.023 6  24598469.078 4 129265743.483 6 100726576.711 4
R02  22713542.445 7  22713546.250 6 121203848.499 7  94269636.509 6
R03  19230915.164 8  19230916.414 8 102944619.009 8  80068028.178 8
R04  20390453.375 8  20390453.859 8 109190041.501 8  84925514.932 8
R12  21428490.211 8  21428492.055 7 114467182.058 8  89030040.515 7
R13  19367884.961 7                 103423420.986 7
R14  21813623.516 7  21813626.672 7 116278911.824 7  90439167.830 7
R20  22676280.078 4  22676278.867 5 121260148.09114  94313531.39815
R21  23602432.695 5  23602434.703 6 126301433.86815  98234415.12616
> 2026 01 01 01 51 30.0000000  0 15
G03  20601682.438 8  20601686.863 8 108262529.514 8  84360460.446 8
G04  21940199.992 7  21940203.359 5 115296499.999 7  89841468.746 5
G16  23634951.109 6  23634954.137 3 124202388.102 6  96781186.826 3
G25  23994717.578 4
G26  21305415.625 7  21305422.004 7 111960750.979 7  87242156.863 7
G28  21766151.172 7  21766154.855 6 114381920.939 7  89128786.859 6
G29  24879101.406 6  24879106.180 5 130740575.180 6 101875823.555 5
G31  20072260.320 8  20072262.918 8 105480471.516 8  82192589.557 8
G32  24614722.500 6  24614731.512 4 129351197.197 6 100793163.681 4
R02  22732349.023 7  22732351.832 6 121304199.634 7  94347687.203 6
R03  19232401.023 8  19232402.617 8 102952574.115 8  80074215.464 8
R04  20371675.172 8  20371676.324 8 109089486.094 8  84847305.191 8
R12  21444608.680 8  21444609.969 7 114553282.234 8  89097007.289 7
R13  19364154.617 7                 103403501.838 7
R14  21787885.703 8  21787888.453 7 116141712.555 8  90332457.275 7
> 2026 01 01 01 52 00.0000000  0 14
G03  20601965.813 8  20601970.184 8 108264017.176 8  84361619.657 8
G04  21922052.328 7  21922055.215 5 115201130.550 7  89767154.893 5
G16  23608867.766 6  23608871.258 3 124065324.088 6  96674383.688 3
G26  21290485.867 7  21290491.922 7 111882293.346 7  87181021.044 7
G28  21777210.117 7  21777213.230 6 114440034.979 7  89174070.498 6
G29  24865143.617 6  24865148.098 5 130667228.023 6 101818669.995 5
G31  20072825.570 8  20072827.777 8 105483439.550 8  82194902.289 8
G32  24631005.172 6  24631013.855 4 129436760.150 6 100859835.735 4
R02  22751197.859 7  22751200.820 6 121404779.490 7  94425915.768 6
R03  19234002.875 8  19234004.309 8 102961149.735 8  80080885.360 8
R04  20352968.938 8  20352968.703 8 108989311.420 8  84769391.560 8
R12  21460808.539 8  21460810.523 7 114639821.636 8  89164315.692 7
R13  19360572.258 7                 103384374.163 7
R14  21762210.047 8  21762212.930 7 116004848.489 8  90226007.458 7
> 2026 01 01 01 52 30.0000000  0 15
G03  20602372.313 8  20602376.906 8 108266155.423 8  84363285.805 8
G04  21903951.242 7  21903954.926 5 115106011.232 7  89693035.962 5
G16  23582813.563 6  23582817.434 3 123928407.237 6  96567695.198 3
G26  21275660.242 7  21275666.121 7 111804383.645 7  87120312.173 7
G28  21788328.992 7  21788331.461 6 114498460.873 7  89219597.129 6
G29  24851268.117 6  24851272.395 4 130594311.802 6 101761852.291 4
G31  20073491.516 8  20073493.996 8 105486940.492 8  82197630.280 8
G32  24647308.875 6  24647316.063 4 129522434.883 6 100926594.972 4
R02  22770089.102 7  22770093.559 6 121505590.247 7  94504323.893 6
R03  19235721.633 8  19235722.832 8 102970349.434 8  80088040.659 8
R04  20334333.711 8  20334334.039 7 108889523.901 8  84691779.037 7
R12  21477091.352 8  21477092.605 7 114726800.159 8  89231965.586 7
R13  19357139.555 7                 103366041.025 7
R14  21736599.102 8  21736601.527 7 115868326.559 8  90119823.728 7
R20  22683380.734 5  22683378.680 5 121298121.70015  94343067.12815
> 2026 01 01 01 53 00.0000000  0 15
G03  20602903.461 7  20602908.070 8 108268945.147 7  84365459.599 8
G04  21885898.969 7  21885902.246 5 115011144.963 7  89619114.201 5
G16  23556787.742 6  23556791.629 3 123791641.337 6  96461124.367 3
G26  21260939.727 7  21260945.141 7 111727025.190 7  87060032.850 7
G28  21799505.977 7  21799508.957 6 114557198.061 7  89265366.334 6
G29  24837475.211 6  24837480.590 4 130521830.510 6 101705373.385 4
G31  20074259.398 7  20074261.441 8 105490974.496 7  82200773.635 8
G32  24663633.789 5  24663641.355 4 129608221.616 5 100993441.402 4
R02  22789024.750 7  22789028.188 6 121606631.072 7  94582911.025 6
R03  19237557.242 8  19237558.152 8 102980174.950 8  80095682.700 8
R04  20315772.484 8  20315772.387 7 108790127.703 8  84614470.864 7
R12  21493455.273 8  21493457.535 7 114814215.020 8  89299954.905 7
R13  19353855.305 7                 103348503.311 7
R14  21711052.391 7  21711055.230 7 115732151.153 7  90013909.558 7
R20  22686036.375 5  22686033.754 5 121312326.962 5  94354115.750 5
> 2026 01 01 01 53 30.0000000  0 15
G03  20603557.922 8  20603562.867 8 108272385.957 8  84368140.725 8
G04  21867895.148 7  21867898.387 5 114916533.383 7  89545390.890 5
G16  23530791.414 6  23530795.395 3 123655029.840 6  96354673.804 3
G26  21246324.031 7  21246329.742 7 111650220.106 7  87000184.715 7
G28  21810742.305 7  21810744.590 6 114616244.789 7  89311376.726 6
G29  24823765.891 6  24823769.750 4 130449786.722 6 101649235.432 4
G31  20075128.367 8  20075130.313 8 105495540.506 8  82204331.553 8
G32  24679979.633 5  24679987.563 3 129694119.352 5 101060374.270 3
R02  22808003.109 7  22808006.258 6 121707900.157 7  94661675.631 6
R03  19239509.617 8  19239510.926 8 102990626.018 8  80103811.292 8
R04  20297284.641 8  20297284.742 7 108691125.910 8  84537469.454 7
R12  21509901.055 8  21509902.680 7 114902062.617 8  89368280.769 7
R13  19350719.164 7                 103331760.585 7
R14  21685572.758 8  21685575.293 7 115596325.749 8  89908267.559 7
R20  22688834.898 5  22688834.793 4 121327304.647 5  94365765.081 4
> 2026 01 01 01 54 00.0000000  0 16
G03  20604336.281 8  20604341.043 8 108276475.250 8  84371327.186 8
G04  21849939.313 7  21849942.961 5 114822175.971 7  89471865.639 5
G16  23504824.961 6  23504828.344 3 123518573.533 6  96248344.208 3
G25  24076341.492 4
G26  21231813.477 7  21231819.535 7 111573968.311 7  86940767.724 7
G28  21822036.125 7  21822039.070 6 114675597.103 7  89357625.244 6
G29  24810139.633 6  24810144.324 4 130378180.431 6 101593438.421 4
G31  20076097.586 8  20076100.156 8 105500635.263 8  82208301.480 8
R02  22827023.023 7  22827027.367 6 121809393.488 7  94740614.651 6
R03  19241578.953 8  19241579.617 8 103001701.241 8  80112425.330 8
R04  20278870.680 8  20278870.813 8 108592519.177 8  84460775.330 8
R12  21526425.352 8  21526428.184 8 114990337.070 8  89436938.642 8
R13  19347732.414 7                 103315809.570 7
R14  21660157.023 7  21660160.199 7 115460851.274 7  89802898.563 7
R20  22691779.695 5  22691778.949 5 121343050.498 5  94378011.699 5
R21  23512589.844 5                 125820568.51515
> 2026 01 01 01 54 30.0000000  0 14
G03  20605238.000 8  20605242.461 8 108281213.228 8  84375019.087 8
G04  21832032.570 7  21832035.789 5 114728074.952 7  89398540.193 5
G16  23478888.820 6  23478891.871 3 123382276.362 6  96142138.580 3
G25  24092846.852 4
G26  21217409.031 7  21217415.301 7 111498272.403 7  86881783.888 7
G28  21833388.789 7  21833391.270 6 114735253.815 7  89404110.929 6
G29  24796596.727 6  24796601.297 4 130307014.767 6 101537984.656 4
G31  20077167.859 7  20077169.977 8 105506258.294 7  82212683.047 8
R02  22846085.141 7  22846089.176 6 121911109.926 7  94819727.193 6
R03  19243764.023 8  19243765.168 8 103013400.362 8  80121524.622 8
R04  20260530.633 8  20260530.996 7 108494310.798 8  84384391.031 7
R12  21543031.500 8  21543032.301 7 115079035.045 8  89505925.913 7
R13  19344893.859 7                 103300650.728 7
R14  21634809.359 8  21634812.637 7 115325731.038 8  89697805.041 7
> 2026 01 01 01 55 00.0000000  0 15
G03  20606263.000 8  20606267.273 8 108286598.504 8  84379215.386 8
G04  21814174.641 7  21814177.609 5 114634231.143 7  89325415.141 5
G16  23452983.047 6  23452985.875 3 123246140.458 6  96036058.595 3
G25  24109416.148 5  24109419.086 2 126695833.85315  98724037.82812
G26  21203110.758 7  21203116.773 7 111423133.599 7  86823234.160 7
G28  21844798.313 7  21844801.543 6 114795212.284 7  89450831.782 6
G29  24783138.203 6  24783142.949 4 130236291.490 6 101482875.673 4
G31  20078337.844 8  20078340.012 8 105512407.450 8  82217474.588 8
R02  22865187.750 7  22865191.379 6 122013046.403 7  94899010.896 6
R03  19246065.828 8  19246067.492 8 103025723.635 8  80131109.368 8
R04  20242265.945 8  20242265.484 7 108396502.934 8  84308318.212 7
R12  21559713.172 8  21559715.621 7 115168152.076 8  89575239.131 7
R13  19342203.203 7                 103286282.375 7
R14  21609527.977 8  21609530.773 7 115190967.618 8  89592989.074 7
R20  22698100.742 6  22698097.656 5 121376837.21816  94404285.34515
> 2026 01 01 01 55 30.0000000  0 16
G03  20607410.375 8  20607415.180 8 108292630.379 8  84383915.529 8
G04  21796365.922 7  21796369.047 5 114540645.978 7  89252491.633 5
G16  23427108.242 6  23427111.453 3 123110168.817 6  95930106.655 3
G25  24126044.359 5
G26  21188918.820 7  21188924.820 7 111348553.627 7  86765119.897 7
G28  21856265.258 7  21856268.727 6 114855470.479 7  89497786.177 6
G29  24769764.367 6  24769769.641 4 130166012.526 6 101428112.938 4
G31  20079607.930 8  20079610.180 8 105519081.489 8  82222675.120 8
R02  22884332.023 7  22884335.867 6 122115201.113 7  94978464.260 6
R03  19248484.203 8  19248486.027 8 103038669.721 8  80141178.516 8
R04  20224076.227 8  20224076.102 7 108299098.488 8  84232559.196 7
R12  21576474.547 8  21576475.930 7 115257684.123 8  89644875.140 7
R13  19339660.773 7                 103272703.123 7
R14  21584314.203 8  21584317.094 7 115056564.637 8  89488453.442 7
R20  22701471.922 5  22701472.578 5 121394877.271 5  94418316.548 5
R21  23469382.430 5  23469381.531 4 125589341.15315  97680647.19614
> 2026 01 01 01 56 00.0000000  0 15
G03  20608680.906 8  20608685.777 8 108299306.647 8  84389117.797 8
G04  21778606.641 7  21778609.934 5 114447319.376 7  89179769.612 5
G16  23401265.703 6  23401268.879 3 122974362.768 6  95824283.738 3
G25  24142729.094 5  24142733.438 2 126870885.76915  98860441.70112
G26  21174832.508 7  21174839.008 7 111274532.805 7  86707441.322 7
G28  21867788.109 7  21867791.426 6 114916024.928 7  89544971.410 6
G29  24756476.133 6  24756480.832 4 130096178.550 6 101373696.830 4
G31  20080976.797 8  20080979.664 8 105526277.630 8  82228282.484 8
R02  22903516.039 7  22903519.172 6 122217570.215 7  95058084.413 6
R03  19251018.969 8  19251020.473 8 103052237.842 8  80151731.462 8
R04  20205962.781 8  20205962.078 7 108202098.134 8  84157114.455 7
R12  21593311.492 8  21593312.969 7 115347625.619 8  89714829.571 7
R13  19337266.039 7                 103259911.201 7
R14  21559169.156 8  21559171.328 7 114922522.658 8  89384198.611 7
R20  22704988.641 5  22704988.227 5 121413676.226 5  94432937.941 5
> 2026 01 01 01 56 30.0000000  0 14
G03  20610074.898 8  20610079.156 8 108306628.918 8  84394823.441 8
G04  21760896.977 7  21760900.480 5 114354255.256 7  89107252.111 5
G16  23375454.344 6  23375458.184 3 122838727.724 6  95718594.072 3
G26  21160854.266 7  21160860.523 7 111201075.266 7  86650201.685 7
G28  21879367.875 7  21879371.297 6 114976876.037 7  89592387.814 6
G29  24743273.078 6  24743276.961 5 130026794.412 6 101319631.307 5
G31  20082446.188 8  20082448.477 8 105533996.919 8  82234297.507 8
R02  22922741.008 7  22922743.734 6 122320154.244 7  95137871.763 6
R03  19253670.555 8  19253672.234 8 103066430.555 8  80162770.224 8
R04  20187924.703 8  20187924.824 8 108105507.272 8  84081988.220 8
R12  21610224.734 8  21610226.891 7 115437974.983 8  89785101.254 7
R13  19335016.359 7                 103247907.006 7
R14  21534091.227 8  21534093.957 7 114788847.316 8  89280228.920 7
R20  22708644.438 6  22708644.992 5 121433234.100 6  94448149.602 5
> 2026 01 01 01 57 00.0000000  0 15
G03  20611590.148 8  20611594.949 8 108314594.158 8  84401030.114 8
G04  21743236.945 7  21743240.902 5 114261452.736 7  89034938.465 5
G16  23349677.094 6  23349680.465 3 122703264.343 6  95613038.227 3
G26  21146983.047 7  21146988.969 7 111128180.519 7  86593400.588 7
G28  21891003.469 7  21891006.539 6 115038019.566 7  89640032.078 6
G29  24730155.031 6  24730160.230 5 129957859.785 6 101265916.021 5
G31  20084013.828 8  20084016.125 8 105542235.506 8  82240717.163 8
R02  22942004.313 7  22942007.691 6 122422948.559 7  95217822.570 6
R03  19256437.938 8  19256439.457 8 103081244.565 8  80174292.206 8
R04  20169962.375 8  20169963.766 7 108009326.283 8  84007180.824 7
R12  21627213.430 8  21627215.332 7 115528726.002 8  89855685.355 7
R13  19332915.695 7                 103236688.140 7
R14  21509082.648 8  21509085.957 7 114655539.393 8  89176545.004 7
R20  22712444.148 6  22712443.840 6 121453546.956 6  94463948.396 6
R21  23427337.977 5  23427337.582 6 125364526.17015  97505648.93416
> 2026 01 01 01 57 30.0000000  0 16
G03  20613228.852 8  20613233.371 8 108323205.670 8  84407740.357 8
G04  21725628.813 7  21725631.695 5 114168917.381 7  88962832.982 5
G16  23323933.266 6  23323936.160 3 122567979.421 6  95507621.397 3
G25  24193127.813 5  24193132.211 3 127135731.05915  99066830.54613
G26  21133220.258 7  21133225.602 7 111055854.357 7  86537042.526 7
G28  21902694.508 7  21902697.605 6 115099457.593 7  89687905.819 6
G29  24717123.711 6  24717127.445 4 129889381.121 6 101212555.999 4
G31  20085681.195 8  20085683.504 8 105550996.156 8  82247543.620 8
R02  22961306.828 7  22961312.063 7 122525955.205 7  95297938.589 7
R03  19259322.367 8  19259323.703 8 103096684.489 8  80186301.009 8
R04  20152080.633 8  20152079.965 8 107913562.140 8  83932697.538 8
R12  21644276.289 7  21644280.715 8 115619878.926 7  89926582.028 8
R13  19330962.445 7                 103226257.189 7
R14  21484145.781 8  21484147.461 7 114522605.868 8  89073152.288 7
R20  22716384.539 6  22716383.633 6 121474616.413 6  94480335.822 6
R21  23413586.734 5  23413582.609 5 125290924.312 5  97448403.267 5
> 2026 01 01 01 58 00.0000000  0 16
G03  20614989.188 8  20614994.094 8 108332457.470 8  84414949.543 8
G04  21708069.250 7  21708072.430 5 114076645.559 7  88890932.852 5
G16  23298223.094 6  23298226.180 3 122432871.479 6  95402342.518 3
G25  24210038.328 5  24210044.109 2 127224605.93915  99136083.77312
G26  21119564.781 7  21119570.063 7 110984093.361 7  86481124.854 7
G28  21914440.836 7  21914443.297 6 115161183.058 7  89736003.548 6
G29  24704178.844 6  24704183.004 5 129821355.027 6 101159548.645 5
G31  20087446.195 8  20087448.918 8 105560272.354 8  82254771.806 8
R02  22980648.539 7  22980654.141 6 122629167.068 7  95378214.162 6
R03  19262321.938 8  19262323.828 8 103112744.375 8  80198792.000 8
R04  20134273.727 8  20134274.391 8 107818212.287 8  83858536.564 8
R12  21661415.727 8  21661417.559 7 115711424.637 8  89997784.178 7
R13  19329155.539 7                 103216607.813 7
R14  21459276.508 8  21459279.852 7 114390044.682 8  88970049.153 7
R20  22720464.250 6  22720464.242 5 121496435.170 6  94497306.013 5
R21  23399959.039 5  23399955.547 5 125218021.96215  97391701.38815
> 2026 01 01 01 58 30.0000000  0 16
G03  20616872.297 8  20616876.508 8 108342350.973 8  84422658.736 8
G04  21690561.516 7  21690564.758 5 113984640.937 7  88819240.941 5
G16  23272546.758 6  23272550.602 3 122297944.851 6  95297204.905 3
G25  24227005.109 4
G26  21106017.172 7  21106022.789 7 110912901.471 7  86425650.634 7
G28  21926241.742 7  21926244.543 6 115223196.175 7  89784325.414 6
G29  24691321.469 6  24691326.379 5 129753785.938 6 101106897.359 5
G31  20089309.828 8  20089312.086 8 105570065.058 8  82262402.471 8
R02  23000029.133 7  23000033.973 6 122732584.180 7  95458649.413 6
R03  19265439.273 8  19265440.070 8 103129426.491 8  80211766.940 8
R04  20116546.234 8  20116546.641 8 107723281.657 8  83784701.614 8
R12  21678625.281 8  21678627.867 7 115803361.258 8  90069290.415 7
R13  19327495.266 7                 103207741.652 7
R14  21434479.625 8  21434482.348 7 114257860.486 8  88867239.275 7
R20  22724684.648 6  22724683.633 5 121519003.196 6  94514858.897 5
R21  23386465.219 5  23386469.281 6 125145823.506 5  97335546.913 6
> 2026 01 01 01 59 00.0000000  0 16
G03  20618876.453 8  20618881.195 8 108352882.646 8  84430865.212 8
G04  21673104.539 7  21673107.930 5 113892902.385 7  88747756.347 5
G09  24225006.875 4
G16  23246905.875 6  23246909.410 3 122163200.151 6  95192209.063 3
G26  21092577.859 7  21092583.633 7 110842277.717 7  86370619.120 7
G28  21938096.094 7  21938099.465 6 115285492.409 7  89832867.889 6
G29  24678549.453 6  24678552.957 4 129686673.687 6 101054602.087 4
G31  20091270.813 8  20091272.594 8 105580370.220 8  82270432.442 8
R02  23019447.992 7  23019452.352 6 122836201.945 7  95539240.750 6
R03  19268671.055 8  19268672.406 8 103146727.956 8  80225223.599 8
R04  20098897.672 8  20098897.707 8 107628770.495 8  83711192.918 8
R12  21695909.000 8  21695911.172 7 115895682.208 8  90141095.552 7
R13  19325980.359 7                 103199653.933 7
R14  21409753.367 8  21409755.363 7 114126054.550 8  88764723.546 7
R20  22729043.813 6  22729044.250 6 121542315.535 6  94532990.660 6
R21  23373106.961 5  23373105.664 5 125074328.66915  97279939.84015
> 2026 01 01 01 59 30.0000000  0 15
G03  20621002.453 8  20621007.242 8 108364056.428 8  84439572.039 8
G04  21655698.945 7  21655702.078 5 113801436.262 7  88676484.030 5
G09  24201785.648 4                 127181279.78214
G16  23221300.664 6  23221304.668 4 122028645.321 6  95087361.188 4
G26  21079247.703 7  21079253.887 7 110772228.583 7  86316035.372 7
G28  21950004.742 7  21950007.973 5 115348074.579 7  89881633.160 5
G29  24665867.055 6  24665872.633 5 129620024.875 6 101002667.870 5
G31  20093330.211 8  20093331.770 8 105591191.312 8  82278864.440 8
R02  23038904.547 7  23038909.406 6 122940022.987 7  95619990.143 6
R03  19272020.305 8  19272020.887 8 103164653.615 8  80239165.739 8
R04  20081327.617 8  20081327.941 8 107534686.044 8  83638016.109 8
R12  21713263.977 8  21713265.926 7 115988388.697 8  90213200.547 7
R13  19324613.039 7                 103192348.981 7
R14  21385098.305 8  21385101.582 7 113994633.841 8  88662507.450 7
R20  22733543.344 6  22733543.262 6 121566374.765 6  94551703.431 6
> 2026 01 01 02 00 00.0000000  0 16
G03  20623250.484 7  20623255.055 8 108375869.281 7  84448776.840 8
G04  21638345.648 7  21638348.324 5 113710241.854 7  88605423.447 5
G06  24335423.406 5                 127883575.92715
G16  23195731.586 6  23195735.613 3 121894281.356 6  94982662.013 3
G26  21066027.195 7  21066033.313 7 110702753.547 7  86261898.965 7
G28  21961967.703 7  21961970.324 6 115410938.580 7  89930618.059 6
G29  24653272.438 6  24653276.582 5 129553839.969 6 100951095.200 5
G31  20095486.609 8  20095487.988 8 105602524.743 8  82287695.647 8
R02  23058398.836 7  23058403.254 6 123044043.148 7  95700894.382 6
R03  19275484.289 8  19275485.664 8 103183200.741 8  80253591.252 8
R04  20063837.820 8  20063837.945 8 107441028.856 8  83565171.643 8
R12  21730689.063 8  21730691.387 7 116081474.231 8  90285600.346 7
R13  19323390.172 7                 103185823.293 7
R14  21360517.211 8  21360519.605 7 113863599.257 8  88560591.687 7
R20  22738181.969 6  22738181.340 6 121591176.529 6  94570993.704 6
R21  23346783.023 6  23346784.996 6 124933453.38616  97170391.67416
> 2026 01 01 02 00 30.0000000  0 15
G03  20625620.094 8  20625625.441 8 108388322.878 8  84458480.912 8
G04  21621044.680 7  21621047.383 5 113619323.283 7  88534577.807 5
G16  23170201.359 6  23170204.605 3 121760113.274 6  94878115.509 3
G26  21052915.969 7  21052922.766 7 110633856.907 7  86208213.272 7
G28  21973983.945 7  21973986.969 6 115474085.116 7  89979823.101 6
G29  24640767.344 6  24640771.602 4 129488123.427 6 100899887.421 4
G31  20097741.266 8  20097742.531 8 105614371.532 8  82296926.883 8
R02  23077929.648 7  23077933.551 6 123148262.898 7  95781953.880 6
R03  19279065.852 8  19279066.750 8 103202371.405 8  80268501.733 8
R04  20046429.000 8  20046429.129 8 107347804.577 8  83492663.852 8
R12  21748185.961 8  21748188.227 7 116174937.750 8  90358294.143 7
R13  19322314.695 7                 103180077.979 7
R14  21336008.070 8  21336011.668 7 113732956.681 8  88458980.788 7
R20  22742958.391 6  22742957.598 5 121616720.974 6  94590861.476 5
R21  23333823.508 5  23333823.211 5 124864098.207 5  97116448.787 5
> 2026 01 01 02 01 00.0000000  0 15
G03  20628111.852 7  20628116.367 8 108401416.009 7  84468683.330 8
G04  21603795.469 7  21603798.324 5 113528681.821 7  88463948.068 5
G16  23144707.484 6  23144710.914 3 121626144.036 6  94773723.909 3
G26  21039916.203 7  21039922.438 7 110565539.960 7  86154979.289 7
G28  21986053.836 7  21986057.176 6 115537511.955 7  90029246.555 6
G29  24628351.047 6  24628355.754 5 129422876.694 6 100849045.801 5
G31  20100092.883 7  20100096.105 8 105626730.089 7  82306556.903 8
R02  23097497.375 7  23097501.598 6 123252679.763 7  95863166.687 6
R03  19282763.227 8  19282764.730 8 103222165.414 8  80283897.040 8
R04  20029100.945 8  20029101.637 8 107255015.592 8  83420494.633 8
R12  21765752.883 8  21765755.441 8 116268775.131 8  90431278.743 8
R13  19321383.922 7                 103175111.887 7
R14  21311574.180 8  21311577.598 7 113602708.576 8  88357676.712 7
R20  22747875.578 6  22747873.125 5 121643005.435 6  94611304.973 5
R21  23320994.109 5  23320997.672 5 124795461.811 5  97063064.978 5
> 2026 01 01 02 01 30.0000000  0 15
G03  20630724.805 7  20630729.652 8 108415145.993 7  84479381.994 8
G04  21586599.789 7  21586602.840 5 113438317.275 7  88393534.129 5
G16  23119252.125 6  23119255.656 4 121492375.026 6  94669488.329 4
G26  21027025.906 7  21027032.266 7 110497802.648 7  86102196.967 7
G28  21998176.172 7  21998179.613 6 115601215.541 7  90078885.659 6
G29  24616023.805 6  24616029.965 4 129358100.404 6 100798570.730 4
G31  20102541.703 7  20102545.148 8 105639597.272 7  82316583.272 8
R02  23117101.461 7  23117106.219 6 123357290.009 7  95944529.871 6
R03  19286577.164 8  19286578.238 8 103242580.571 8  80299775.464 8
R04  20011855.094 8  20011855.715 8 107162663.063 8  83348664.884 8
R12  21783387.938 8  21783390.598 7 116362980.645 8  90504549.628 7
R13  19320599.172 7                 103170921.531 7
R14  21287214.141 8  21287217.145 7 113472856.037 8  88256680.308 7
R20  22752924.148 6  22752925.848 5 121670025.839 6  94632320.898 5
R21  23308304.578 5  23308306.645 6 124727545.11915  97010240.82816
> 2026 01 01 02 02 00.0000000  0 16
G03  20633458.469 8  20633463.242 8 108429512.235 8  84490576.450 8
G04  21569457.609 7  21569460.504 5 113348231.590 7  88323337.479 5
G09  24085836.039 5                 126571965.99815
G16  23093835.656 6  23093839.012 4 121358809.731 6  94565411.524 4
G26  21014246.969 7  21014252.898 7 110430646.951 7  86049867.842 7
G28  22010351.078 7  22010354.438 6 115665194.282 7  90128739.179 6
G29  24603788.328 6  24603793.379 5 129293797.049 6 100748464.203 5
G31  20105086.688 8  20105089.648 8 105652971.991 8  82327005.126 8
R02  23136741.266 7  23136746.531 6 123462092.063 7  96026042.258 6
R03  19290506.820 8  19290508.305 8 103263617.258 8  80316137.293 8
R04  19994690.484 8  19994691.070 8 107070749.634 8  83277176.664 8
R12  21801092.047 8  21801093.926 7 116457550.855 8  90578104.205 7
R13  19319960.602 7                 103167506.311 7
R14  21262929.398 8  21262932.398 7 113343402.695 8  88155994.349 7
R20  22758117.008 6  22758117.414 6 121697780.031 6  94653907.454 6
R21  23295748.516 6  23295747.496 5 124660350.722 6  96957978.669 5
> 2026 01 01 02 02 30.0000000  0 16
G03  20636313.711 7  20636318.207 8 108444516.104 7  84502267.755 8
G04  21552367.844 7  21552371.211 5 113258428.633 7  88253361.143 5
G09  24062679.992 4
G16  23068459.469 6  23068461.527 4 121225453.613 6  94461497.670 4
G26  21001578.602 7  21001584.742 7 110364076.772 7  85997994.961 7
G28  22022578.859 7  22022581.242 5 115729448.665 7  90178807.472 5
G29  24591642.906 6  24591645.473 5 129229970.883 6 100698729.560 5
G31  20107728.406 8  20107730.941 8 105666854.935 8  82337822.978 8
R02  23156417.531 7  23156422.168 6 123567086.122 7  96107703.982 6
R03  19294553.219 8  19294554.625 8 103285277.070 8  80332983.770 8
R04  19977608.477 8  19977610.098 8 106979281.059 8  83206034.420 8
R12  21818864.070 8  21818865.953 7 116552484.188 8  90651941.175 7
R13  19319465.023 7                 103164866.790 7
R14  21238719.656 8  21238722.773 7 113214353.726 8  88055622.945 7
R20  22763443.586 6  22763444.738 6 121726268.072 6  94676064.951 6
R21  23283326.406 6  23283326.188 5 124593883.820 6  96906282.175 5
> 2026 01 01 02 03 00.0000000  0 15
G03  20639289.703 7  20639294.543 8 108460155.449 7  84514454.226 8
G04  21535333.375 7  21535336.602 5 113168908.881 7  88183605.478 5
G09  24039543.945 5  24039547.629 2 126328686.60415  98437923.57412
G16  23043122.180 6  23043125.203 4 121092308.159 6  94357747.967 4
G26  20989022.531 7  20989028.543 7 110298092.555 7  85946578.682 7
G28  22034857.727 7  22034860.281 5 115793975.648 7  90229088.193 5
G29  24579587.445 6  24579592.621 5 129166623.264 6 100649367.748 5
G31  20110466.859 7  20110468.969 8 105681243.682 7  82349034.971 8
R02  23176129.820 7  23176133.457 6 123672268.885 7  96189512.453 6
R03  19298715.922 8  19298717.219 8 103307558.955 8  80350314.095 8
R04  19960611.352 8  19960612.359 8 106888258.514 8  83135239.104 8
R12  21836701.992 7  21836704.738 7 116647775.750 7  90726056.780 7
R13  19319115.438 7                 103163000.730 7
R14  21214586.156 8  21214589.867 7 113085711.030 8  87955567.515 7
R20  22768908.758 6  22768907.410 5 121755486.200 6  94698790.091 5
> 2026 01 01 02 03 30.0000000  0 16
G03  20642386.586 8  20642391.090 8 108476429.098 8  84527134.975 8
G04  21518352.461 7  21518355.824 5 113079673.764 7  88114071.610 5
G09  24016414.625 5  24016420.293 3 126207147.278 5  98343217.633 3
G16  23017826.016 6  23017829.301 4 120959376.472 6  94254164.867 4
G26  20976577.656 7  20976583.859 7 110232695.747 7  85895620.123 7
G28  22047188.008 7  22047191.234 6 115858773.265 7  90279579.767 6
G29  24567625.375 6  24567628.539 5 129103755.646 6 100600380.024 5
G31  20113300.898 8  20113303.113 8 105696137.163 8  82360640.259 8
R02  23195875.570 7  23195880.109 6 123777638.308 7  96271466.132 6
R03  19302994.313 8  19302995.652 8 103330461.837 8  80368127.406 8
R04  19943698.211 8  19943698.504 8 106797685.218 8  83064793.216 8
R12  21854607.867 8  21854610.262 7 116743421.377 8  90800447.769 7
R13  19318911.180 7                 103161906.651 7
R14  21190530.945 8  21190533.852 7 112957477.126 8  87855830.023 7
R20  22774508.367 6  22774507.504 5 121785431.726 6  94722081.065 5
R21  23258894.820 5  23258892.395 5 124463137.51515  96804590.75315
> 2026 01 01 02 04 00.0000000  0 16
G03  20645603.570 8  20645608.563 8 108493336.300 8  84540309.376 8
G04  21501425.734 7  21501429.359 5 112990725.091 7  88044760.954 5
G09  23993296.180 4  23993304.578 2 126085677.010 4  98248565.362 2
G16  22992571.492 6  22992574.629 4 120826662.202 6  94150751.173 4
G26  20964245.742 7  20964251.465 7 110167888.118 7  85845120.662 7
G28  22059570.000 7  22059573.113 5 115923839.872 7  90330280.965 5
G29  24555752.977 6  24555756.660 5 129041370.749 6 100551768.438 5
G31  20116230.492 8  20116232.898 8 105711533.714 8  82372637.544 8
R02  23215657.906 7  23215661.465 6 123883192.297 7  96353563.401 6
R03  19307388.766 8  19307390.000 8 103353985.742 8  80386423.738 8
R04  19926867.328 8  19926868.855 8 106707563.873 8  82994698.824 8
R12  21872578.547 8  21872580.945 7 116839417.785 8  90875111.602 7
R13  19318851.086 7                 103161583.232 7
R14  21166551.523 8  21166554.578 7 112829655.189 8  87756412.968 7
R20  22780244.352 6  22780242.918 5 121816102.604 6  94745936.056 5
R21  23246883.773 6  23246884.148 5 124398863.022 6  96754599.231 5
> 2026 01 01 02 04 30.0000000  0 16
G03  20648941.789 8  20648946.277 8 108510875.877 8  84553976.560 8
G04  21484554.313 7  21484557.855 5 112902064.442 7  87975674.717 5
G09  23970197.414 5                 125964277.066 5
G16  22967358.930 6  22967361.535 4 120694168.046 6  94047508.951 4
G26  20952025.570 7  20952031.512 7 110103671.202 7  85795081.490 7
G28  22072002.367 7  22072005.504 5 115989173.563 7  90381190.276 5
G29  24543974.211 6  24543978.758 5 128979470.039 6 100503534.142 5
G31  20119255.891 8  20119258.156 8 105727431.979 8  82385025.775 8
R02  23235471.969 7  23235476.871 6 123988929.143 7  96435802.750 6
R03  19311899.570 8  19311900.781 8 103378130.894 8  80405203.274 8
R04  19910124.320 8  19910124.086 8 106617897.189 8  82924958.052 8
R12  21890614.648 8  21890616.281 7 116935760.878 8  90950045.065 7
R13  19318934.805 7                 103162028.790 7
R14  21142650.586 8  21142653.719 8 112702248.742 8  87657319.074 8
R20  22786115.320 6  22786116.500 5 121847495.956 6  94770353.018 5
R21  23235006.820 4  23235011.359 5 124335323.926 4  96705179.678 5
> 2026 01 01 02 05 00.0000000  0 16
G03  20652399.602 8  20652404.285 8 108529047.829 8  84568136.502 8
G04  21467738.555 7  21467741.488 5 112813694.427 7  87906814.963 5
G09  23947110.617 4                 125842949.979 4
G16  22942187.891 6  22942191.625 4 120561898.076 6  93944441.414 4
G26  20939918.578 8  20939924.289 7 110040047.487 8  85745504.562 7
G28  22084485.703 7  22084488.469 5 116054773.594 7  90432307.125 5
G29  24532288.203 6  24532291.805 5 128918056.782 6 100455679.697 5
G31  20122376.945 8  20122378.609 8 105743831.475 8  82397804.573 8
R02  23255321.789 7  23255325.734 6 124094847.444 7  96518183.343 6
R03  19316524.906 8  19316527.184 8 103402897.240 8  80424465.944 8
R04  19893465.180 8  19893465.297 8 106528689.065 8  82855573.933 8
R12  21908714.813 8  21908716.406 7 117032448.000 8  91025246.080 7
R13  19319161.977 7                 103163243.194 7
R14  21118828.227 8  21118830.621 7 112575261.122 8  87558550.920 7
R20  22792120.563 5  22792119.555 4 121879610.279 5  94795330.889 4
R21  23223274.359 5  23223272.984 5 124272523.739 5  96656335.313 5
> 2026 01 01 02 05 30.0000000  0 15
G03  20655977.695 7  20655982.348 8 108547849.898 7  84582787.444 8
G04  21450977.383 7  21450980.578 5 112725615.507 7  87838182.027 5
G16  22917060.734 6  22917064.695 4 120429854.081 6  93841549.988 4
G26  20927924.227 8  20927929.941 7 109977017.383 8  85696390.180 7
G28  22097019.359 7  22097022.492 5 116120636.914 7  90483629.129 5
G29  24520693.383 6  24520697.531 5 128857131.743 6 100408205.647 5
G31  20125592.516 7  20125594.367 8 105760729.667 7  82410971.958 8
R02  23275202.484 6  23275208.848 6 124200944.346 6  96600702.783 6
R03  19321268.180 8  19321269.430 8 103428282.537 8  80444210.026 8
R04  19876891.453 8  19876892.152 8 106439941.063 8  82786547.711 8
R12  21926877.313 8  21926879.578 7 117129474.196 8  91100710.851 7
R13  19319533.313 7                 103165223.563 7
R14  21095084.422 8  21095087.145 7 112448694.193 8  87460109.961 7
R20  22798260.203 5  22798259.699 4 121912441.82315  94820866.50514
R21  23211677.664 5  23211676.949 6 124210463.503 5  96608066.478 6
> 2026 01 01 02 06 00.0000000  0 15
G03  20659675.680 8  20659680.012 8 108567281.602 8  84597929.008 8
G04  21434271.547 7  21434275.469 5 112637829.969 7  87769777.707 5
G16  22891977.680 6  22891981.211 4 120298040.113 6  93738837.802 4
G26  20916043.516 7  20916048.855 7 109914582.960 7  85647739.970 7
G28  22109602.664 7  22109605.926 5 116186762.379 7  90535155.398 5
G29  24509192.898 6  24509197.785 5 128796697.610 6 100361114.184 5
G31  20128902.750 8  20128904.809 8 105778125.729 8  82424527.314 8
R02  23295119.828 7  23295125.414 6 124307218.140 7  96683359.791 6
R03  19326125.500 8  19326127.770 8 103454288.166 8  80464436.587 8
R04  19860405.109 8  19860405.309 8 106351656.827 8  82717882.150 8
R12  21945104.383 8  21945106.473 7 117226836.355 8  91176436.920 7
R13  19320046.703 7                 103167968.956 7
R14  21071419.836 8  21071423.355 7 112322551.658 8  87361999.121 7
R20  22804533.750 5  22804532.832 5 121945988.467 5  94846958.424 5
R21  23200213.430 5  23200217.207 6 124149146.079 5  96560375.069 6
